t,frame,xb,xa,xc,xp,pwm1,pwm2,pwm3,pwm4,p,q,r,accx,accy,accz,x,y,z,roll,pitch,yaw,vx,vy,vz,theta1,theta2,b1s1,a1s1,pwr1,pwr2,pwrsum
1.1000000000000052,1,-0.05311165349175976,-0.997573142596401,28.512130823635015,46.152699999999996,1000,1000,1000,1000,0.0007389471648797098,-0.00017097353440183362,0.00017770757047471658,-0.001105647965172942,-0.6866507189739429,-9.782746831073705,0.0012766638758142173,0.00033015449110413586,-0.6095996814304447,0.06999640357951058,-0.0007836768559108992,3.0337612440894715e-05,0.0032694533623557395,0.0009448276416796352,4.962866015562015e-06,0.10945152702133829,0.09551808392514809,-0.0003826834483460443,-0.0002638233447355395,0.7235724824750217,0.06686816462622656,0.7904406471012483,
1.1050000000000046,2,-0.05311165349175976,-0.997573142596401,28.512130823635015,46.152699999999996,1000,1000,1000,1000,0.0005092473538818799,0.00015897526040047313,-0.005958319352173025,-0.00012579708459822207,0.05488883057542626,-2.1139386632007824,0.0012930870617268051,0.00033557778901437596,-0.6095810110522106,0.06999920685848499,-0.0007831232241833615,2.4227106058183947e-05,0.0032931299075159115,0.0015392115924666811,0.016952844777586507,0.06282000611276789,0.05235001063777568,-2.000278213287743e-10,1.5485653432900649e-09,0.3335696527856759,0.027567868934335563,0.36113752172001146,
1.1075000000000044,3,-0.05311165349175976,-0.997573142596401,28.512130823635015,46.152699999999996,1000,1000,1000,1000,0.000498563303257315,0.00034202921586943186,-0.010877920525627714,-0.00010226918327450353,-0.1062746560521477,-2.8579830955725862,0.0013013254546757579,0.00033991917438727605,-0.6095154892914425,0.07000050010834666,-0.0007810159013294219,2.9181464184119275e-06,0.003297826137371614,0.0018939207660005942,0.035185527612817444,0.06282000611276789,0.05235001063777568,-2.000278213287743e-10,1.5485653432900649e-09,0.3800989790974615,0.03547465580252278,0.4155736348999843,
1.110000000000004,4,-0.05311165349175976,-0.997573142596401,28.512130823635015,46.152699999999996,1000,1000,1000,1000,0.0003951416175182045,0.0005839047877288437,-0.01438504575132566,-4.4930146095830195e-06,-0.1857417790691226,-3.1980564697220855,0.0013095773718225436,0.00034487947111984466,-0.6094062787577089,0.07000165930653375,-0.0007776471631163077,-2.868433073360784e-05,0.0033038595084039692,0.002053873794180601,0.05205551931941764,0.06282000611276789,0.05235001063777568,-2.000278213287743e-10,1.5485653432900649e-09,0.4015039935825617,0.038415654245506456,0.4399196478280682,
1.1125000000000038,5,-0.05311165349175976,-0.997573142596401,28.512130823635015,46.152699999999996,1000,1000,1000,1000,0.00019965897443646296,0.0008474824563887005,-0.017156507895898072,0.00010796956282901112,-0.22580929756318346,-3.2213028766415137,0.0013178453892210562,0.00035008964721633905,-0.6092555927059983,0.07000244964189983,-0.0007730985755975339,-6.798764651406384e-05,0.0033106211401966274,0.0021000960687911144,0.06848416922990846,0.06282000611276789,0.05235001063777568,-2.000278213287743e-10,1.5485653432900649e-09,0.4099692715305814,0.03966529985358645,0.44963457138416785,
1.1150000000000035,6,-0.05311165349175976,-0.997573142596401,28.512130823635015,46.152699999999996,1000,1000,1000,1000,-7.638232958628573e-05,0.0011017649517189453,-0.019518075263750996,0.00019902741051396663,-0.246224108281632,-3.060344950402266,0.0013261306819769357,0.0003553037845824876,-0.6090636797727733,0.07000265215696784,-0.0007674534175854621,-0.00011360497908355413,0.003317620625896892,0.0020595037482779065,0.08510559773390204,0.06282000611276789,0.05235001063777568,-2.000278213287743e-10,1.5485653432900649e-09,0.41172312174514586,0.0402437692490096,0.45196689099415543,
1.1175000000000033,7,-0.05311165349175976,-0.997573142596401,28.512130823635015,46.152699999999996,1000,1000,1000,1000,-0.00041364158618929856,0.001325525751373048,-0.021633475392213285,0.00022086723625265505,-0.2566647841368892,-2.8517603544079613,0.0013344334176189183,0.0003603244383702163,-0.6088296333640624,0.07000208807299743,-0.0007608193115952487,-0.0001647411087209864,0.0033245381367370233,0.0019477575484511086,0.10220870093649699,0.06282000611276789,0.05235001063777568,-2.000278213287743e-10,1.5485653432900649e-09,0.41019230069986806,0.04052600358377675,0.4507183042836448,
1.120000000000003,8,-0.05311165349175976,-0.997573142596401,28.512130823635015,46.152699999999996,1000,1000,1000,1000,-0.000791507043213976,0.001507135648529578,-0.02359816885976671,0.000127403155120406,-0.2620258020583669,-2.7039217427769406,0.001342753118283322,0.0003649973024276621,-0.6085522270789282,0.07000062991484582,-0.0007533226620286115,-0.00022091472446327182,0.003331168376283098,0.0017847318948265348,0.11977102410579062,0.06282000611276789,0.05235001063777568,-2.000278213287743e-10,1.5485653432900649e-09,0.40799694776116724,0.040668402221919635,0.4486653499830869,
1.1225000000000027,9,-0.05311165349175976,-0.997573142596401,28.512130823635015,46.152699999999996,1000,1000,1000,1000,-0.0011922432999787354,0.0016413485809028368,-0.025484238336147436,-8.053894277257074e-05,-0.26484778100462786,-2.679416149877385,0.0013510889114415046,0.0003692257861538196,-0.6082305814550288,0.0699981986774486,-0.0007450959000907359,-0.00028185011036115104,0.0033374056835619526,0.0015963994786705588,0.1375545002945953,0.06282000611276789,0.05235001063777568,-2.000278213287743e-10,1.5485653432900649e-09,0.40717406783249466,0.04074224893665875,0.4479163167691534,
1.1250000000000024,10,-0.05311165349175976,-0.997573142596401,28.512130823635015,46.152699999999996,1000,1000,1000,1000,-0.0016010455319976126,0.0017257963095381854,-0.02735245927497323,-0.0003577644005589749,-0.2664524003519901,-2.792404026979873,0.0013594398124396536,0.00037298171617071587,-0.6078645537492171,0.06999475584248264,-0.0007362688361191776,-0.00034743769848150655,0.0033432670470733986,0.0014107123285912037,0.15522578528002487,0.06282000611276789,0.05235001063777568,-2.000278213287743e-10,1.5485653432900649e-09,0.4086623797287955,0.04078189170250993,0.44944427143130544,
1.164999999999998,20,-0.05311165349175976,-0.997573142596401,28.512130823635015,46.152699999999996,1000,1000,1000,1000,-0.0058587657096496265,0.001289630569890601,-0.06071290641781892,-0.0022852600444728715,-0.2743553566164305,-4.65990798239674,0.0014953058851832127,0.00042752957401144824,-0.596862622243089,0.06985160626994269,-0.0005521732381692312,-0.002089330912834005,0.003451936947314415,0.0019757836133609055,0.38495667560847374,0.06282000611276789,0.05235001063777568,-2.000278213287743e-10,1.5485653432900649e-09,0.43388559678000777,0.040897855598291934,0.4747834523782997,
1.2124999999999928,40,-0.05311165349175976,-0.997573142596401,28.512130823635015,46.152699999999996,1000,1000,1000,1000,-0.007219970723001282,-0.0016057085748300958,-0.10364858899521183,-0.0038787235925688774,-0.281565789795517,-5.285386983933252,0.0016713713480905347,0.000613275996485864,-0.5715164354749782,0.06950815109728914,-0.0002779127576003988,-0.006191277145890181,0.0035879400794115598,0.005741430297981171,0.6239003017988907,0.06282000611276789,0.05235001063777568,-2.000278213287743e-10,1.5485653432900649e-09,0.4384809796402653,0.041008552769732504,0.4794895324099978,
1.264999999999987,60,-0.05311165349175976,-0.997573142596401,28.512130823635015,46.152699999999996,1000,1000,1000,1000,-0.008581941596545422,-0.0052004177916680034,-0.14571383056440027,-0.004241882571120551,-0.29098422174681854,-5.938623451904991,0.0018536284944120013,0.0010302164908540935,-0.5349830317457338,0.06909754451649039,-4.543884242011006e-06,-0.012426400706775352,0.003704551100684714,0.01124243198029918,0.8319399549092195,0.06282000611276789,0.05235001063777568,-2.000278213287743e-10,1.5485653432900649e-09,0.44072903106419714,0.0411271341936414,0.48185616525783853,
1.3149999999999815,80,-0.05311165349175976,-0.997573142596401,28.512130823635015,46.152699999999996,1000,1000,1000,1000,-0.0076544896328682105,-0.006599202439781857,-0.18623473846739952,-0.009068697694289312,-0.298778960436571,-6.343512962597213,0.00204188571934453,0.0017596173008830938,-0.4887439916441347,0.06870851704762644,0.0002666862373545042,-0.02073346054998829,0.003821487211492161,0.018088278265826676,1.0142666998211394,0.06282000611276789,0.05235001063777568,-2.000278213287743e-10,1.5485653432900649e-09,0.4412083413960944,0.041248054362413675,0.48245639575850807,
1.364999999999976,100,-0.05311165349175976,-0.997573142596401,28.512130823635015,46.152699999999996,1000,1000,1000,1000,-0.006854528261599837,-0.008421051573452272,-0.22490220308615133,-0.013047519544373783,-0.30422265742067267,-6.6620086855985114,0.0022361986920128294,0.002851127879044924,-0.4338462003396813,0.06833512534409295,0.0005826799103660879,-0.03102246958372983,0.003952355244619366,0.02568218677617086,1.1790204115253176,0.06282000611276789,0.05235001063777568,-2.000278213287743e-10,1.5485653432900649e-09,0.44122442425625985,0.041368966766109065,0.4825933910223689,
1.4124999999999708,120,-0.05311165349175976,-0.997573142596401,28.512130823635015,46.152699999999996,1000,1000,1000,1000,-0.08443860540659041,-0.02259027762246434,-0.2589902814397756,-0.6397668233811955,-5.291201221725828,-34.58349303298016,0.0024312428150563797,0.004321733048390193,-0.37139129911967117,0.06774172565835922,0.0009448358579381046,-0.043191948202746806,0.0014110827793656377,0.02550377762207925,1.1999329898706437,0.06282000611276789,0.05235001063777568,-2.000278213287743e-10,1.5485653432900649e-09,0.46149317809886736,0.0413997412050703,0.5028929193039376,
1.4624999999999653,140,-0.05311165349175976,-0.997573142596401,28.512130823635015,46.152699999999996,1000,1000,1000,1000,-0.03998254107593493,-0.019010286763321862,-0.2361263267165629,-0.3227666066987645,0.5350833982080634,-9.892976489685893,0.001982997907321969,0.002509144708449723,-0.3521522104118267,0.06896776847049639,0.00021661986106794623,-0.05535494488500777,-0.015476606844314244,-0.029535591667292804,-0.013174640901240207,0.06282000611276789,0.05235001063777568,-2.000278213287743e-10,1.5485653432900649e-09,0.43533446598617453,0.041012371087485004,0.47634683707365955,
1.5149999999999595,160,-0.05311165349175976,-0.997573142596401,28.512130823635015,46.152699999999996,1000,1000,1000,1000,-0.062481744534563455,-0.01938603767280802,-0.20400271322988853,-0.08455816877762098,-1.267014605440468,-9.671098679787919,0.0012643900677816124,0.001776480291629757,-0.35284314370956293,0.06566019635154446,-0.0001889112189306406,-0.06653107388479951,-0.013244195503767021,-0.005788369397272919,-0.013617439239033755,0.06282000611276789,0.05235001063777568,-2.000278213287743e-10,1.5485653432900649e-09,0.47841688543746147,0.040961926184701354,0.5193788116221628,
1.5624999999999543,180,-0.05311165349175976,-0.997573142596401,28.512130823635015,46.152699999999996,1000,1000,1000,1000,-0.06366760685076094,-0.02181602929279872,-0.17373880402930086,0.02566231359126282,-0.042391829801972314,-9.808488081546985,0.0006519165972308375,0.0016648111242860409,-0.35351296444847186,0.062436904752573345,-0.0005188488300129269,-0.07605223312456759,-0.010672152262544601,0.0030421460143292287,-0.013124138783845421,0.06282000611276789,0.05235001063777568,-2.000278213287743e-10,1.5485653432900649e-09,0.4745907395314671,0.04093792431834561,0.5155286638498127,
1.6149999999999485,200,-0.05311165349175976,-0.997573142596401,28.512130823635015,46.152699999999996,1000,1000,1000,1000,-0.05564757022769577,-0.012699861154767875,-0.14975286801818452,0.08269182412865832,-0.9559153794767541,-9.752847658375247,0.00013954012311301456,0.00196369508817825,-0.3541452558986976,0.05954187339765042,-0.0008317726085521932,-0.08409955244197621,-0.010364605239809598,0.004225539493644178,-0.012240582677825018,0.06282000611276789,0.05235001063777568,-2.000278213287743e-10,1.5485653432900649e-09,0.4685219353515491,0.04091004012157895,0.509431975473128,
1.6624999999999432,220,-0.05311165349175976,-0.997573142596401,28.512130823635015,46.152699999999996,1000,1000,1000,1000,-0.04741327389983779,-0.01000972146359516,-0.13149296148670986,-0.026246678748676387,-0.8658610439643594,-9.74987068827816,-0.00036052338943535486,0.0020860856063746507,-0.35473916054869054,0.056931327566509586,-0.0011199003660212054,-0.09118987425529411,-0.009015730558035848,0.001181497268853546,-0.011453165616719295,0.06282000611276789,0.05235001063777568,-2.000278213287743e-10,1.5485653432900649e-09,0.47263670481874925,0.04088899033586529,0.5135256951546145,
1.7124999999999377,240,-0.05311165349175976,-0.997573142596401,28.512130823635015,46.152699999999996,1000,1000,1000,1000,-0.04968208511722853,-0.01402564772442139,-0.11212746991517464,0.007355515425976783,-0.6346483877612308,-9.752936074116219,-0.0008100819233608259,0.002122768109738981,-0.3553014045857623,0.05432053140344081,-0.0013479944760893942,-0.09727953174461429,-0.008320806487438381,-0.0008649327874921566,-0.010908026833704213,0.06282000611276789,0.05235001063777568,-2.000278213287743e-10,1.5485653432900649e-09,0.4681890807690387,0.04086715149559991,0.5090562322646386,
1.764999999999932,260,-0.05311165349175976,-0.997573142596401,28.512130823635015,46.152699999999996,1000,1000,1000,1000,-0.05101970594496995,-0.0068822013424538605,-0.09412709205473216,0.07194124132620518,-1.1791962667349993,-9.726753731440313,-0.0012138931531154383,0.0020361405233483855,-0.35583018276868467,0.05188122743702246,-0.0015505401346836258,-0.10243830564643332,-0.007370426648485657,-0.0035665836169461794,-0.01030910041940892,0.06282000611276789,0.05235001063777568,-2.000278213287743e-10,1.5485653432900649e-09,0.4471360325219825,0.04084378288549956,0.48797981540748203,
1.8149999999999264,280,-0.05311165349175976,-0.997573142596401,28.512130823635015,46.152699999999996,1000,1000,1000,1000,-0.05099720417491735,-0.005281617191717064,-0.07472820731597521,0.022856540513481235,-0.23340410703598719,-9.801741448742755,-0.0015882564429967596,0.0015949371674070564,-0.356328433328543,0.049550970427496684,-0.0017546544614279976,-0.10686742181191752,-0.00562730087093732,-0.0037818065622285154,-0.009774168578481532,0.06282000611276789,0.05235001063777568,-2.000278213287743e-10,1.5485653432900649e-09,0.47094052898309635,0.04082220297374104,0.5117627319568374,
1.864999999999921,300,-0.05311165349175976,-0.997573142596401,28.512130823635015,46.152699999999996,1000,1000,1000,1000,-0.043862132583413725,-0.00869957279772331,-0.06125742601730651,0.02383582251732068,-0.5451520426229322,-9.766515979709725,-0.001786725838610957,0.0013749162410174166,-0.3568007723194576,0.04714879975590075,-0.001903612266427941,-0.11020051412005415,-0.0029805382305050036,-0.00695882643928517,-0.0091235112808606,0.06282000611276789,0.05235001063777568,-2.000278213287743e-10,1.5485653432900649e-09,0.4602816670901824,0.0408094880425347,0.5010911551327171,
1.9149999999999154,320,-0.05311165349175976,-0.997573142596401,28.512130823635015,46.152699999999996,1000,1000,1000,1000,-0.050722229694140815,-0.003627273901237636,-0.04433187534269197,0.08712809621238747,-0.5623586847535568,-9.782196248274273,-0.0019359002126793246,0.000958082868829892,-0.35724355841591027,0.04496644099838873,-0.0020482352051375313,-0.11284260143771789,-0.0023246282033653207,-0.007591608546997515,-0.008718149584632786,0.06282000611276789,0.05235001063777568,-2.000278213287743e-10,1.5485653432900649e-09,0.4654131214448539,0.04078887834445197,0.5062019997893059,
1.9624999999999102,340,-0.05311165349175976,-0.997573142596401,28.512130823635015,46.152699999999996,1000,1000,1000,1000,-0.03844424786444075,-0.0024838454666626614,-0.03060364910874543,-0.07276564091193083,-0.5974957454098474,-9.779109276525382,-0.002027615059592961,0.0004956758333044892,-0.3576620571397114,0.04280362032805739,-0.0022204387457049296,-0.11467683185970148,-0.0011480477026168205,-0.009640237947909552,-0.008053111886034296,0.06282000611276789,0.05235001063777568,-2.000278213287743e-10,1.5485653432900649e-09,0.4650633604150714,0.04076957940633288,0.5058329398214043,
2.012499999999908,360,-0.05311165349175976,-0.997573142596401,28.512130823635015,46.152699999999996,1000,1000,1000,1000,-0.03704846904475463,-0.006047904702147011,-0.020259221472758788,0.024121380366712596,-0.3767061710576274,-9.787751340410336,-0.0021025631792807517,-4.09270355743745e-05,-0.35805587344910617,0.040738015538620574,-0.0023631415773770464,-0.11591354511884625,-0.0014164084169109427,-0.012792436679788051,-0.0075996460189298115,0.06282000611276789,0.05235001063777568,-2.000278213287743e-10,1.5485653432900649e-09,0.46150706682329456,0.040753965428706254,0.5022610322520008,
2.064999999999916,380,-0.05311165349175976,-0.997573142596401,28.512130823635015,46.152699999999996,1000,1000,1000,1000,-0.03921443497013866,-0.0022804646264766287,-0.011356416427937653,-0.03332920650933364,-0.6068095449354265,-9.784131018749713,-0.00216299755644301,-0.0006269179289810827,-0.3584272142533487,0.03873903587108119,-0.002486169740794164,-0.11669538834885261,-0.001287714034762931,-0.013057922767562331,-0.007195958358430544,0.06282000611276789,0.05235001063777568,-2.000278213287743e-10,1.5485653432900649e-09,0.4623985798249451,0.0407409768140565,0.5031395566390016,
2.114999999999924,400,-0.05311165349175976,-0.997573142596401,28.512130823635015,46.152699999999996,1000,1000,1000,1000,-0.034030373588139394,-0.0016331589697129,-0.004018871163919935,-0.11058079765242652,-0.287509628884619,-9.80325754895414,-0.0021741996514517276,-0.0012679284898511197,-0.3587767632926877,0.03684309181038723,-0.002611760299995259,-0.11715622709754354,-0.0006010386718082011,-0.01413571958630986,-0.0067371685775369115,0.06282000611276789,0.05235001063777568,-2.000278213287743e-10,1.5485653432900649e-09,0.46564855951687956,0.04073427073318034,0.5063828302500599,
2.1624999999999313,420,-0.05311165349175976,-0.997573142596401,28.512130823635015,46.152699999999996,1000,1000,1000,1000,-0.035491171485355494,-0.004561460025392955,0.005329739526566771,0.010750878622362021,-0.37703029757090667,-9.782769636467895,-0.002195473635088533,-0.00193775343759701,-0.35910730960030407,0.03492385783661073,-0.0027219910428651593,-0.11706890201919605,-0.00028129950813625236,-0.013490983942984048,-0.0063968741714266085,0.06282000611276789,0.05235001063777568,-2.000278213287743e-10,1.5485653432900649e-09,0.45829650774955627,0.04072816047240873,0.499024668221965,
2.212499999999939,440,-0.05311165349175976,-0.997573142596401,28.512130823635015,46.152699999999996,1000,1000,1000,1000,-0.039528020279183035,-0.0012715762976739202,-0.0006059252581455289,-0.06050073768884406,-0.3479672137901932,-9.796405744870489,-0.0022272087124425243,-0.00258422722616746,-0.35941804776762354,0.03312690551801462,-0.0028241625314786157,-0.11691688247657635,-0.0008290272350380172,-0.012341790409767062,-0.006077707779610343,0.06282000611276789,0.05235001063777568,-2.000278213287743e-10,1.5485653432900649e-09,0.4539186449132415,0.0407410929918834,0.4946597379051249,
2.2649999999999473,460,-0.05311165349175976,-0.997573142596401,28.512130823635015,46.152699999999996,1000,1000,1000,1000,-0.031953288767265976,8.245839123836527e-05,-0.0038262323162281883,-0.026597244526001457,-0.2334662535526032,-9.80317030745576,-0.0022635305351776515,-0.003208023361357727,-0.3597109213628647,0.03138822716175788,-0.0029377758456361077,-0.11708385722078252,-0.0005350444497533892,-0.012227451008587208,-0.005656699441063044,0.06282000611276789,0.05235001063777568,-2.000278213287743e-10,1.5485653432900649e-09,0.4597824374827684,0.040741555996166016,0.5005239934789344,
2.3124999999999547,480,-0.05311165349175976,-0.997573142596401,28.512130823635015,46.152699999999996,1000,1000,1000,1000,-0.03164417163587444,-0.003892431053071234,0.002392250649964066,0.004545644446644136,-0.3134979525987102,-9.788499500072422,-0.002303683831498307,-0.0038031722428111133,-0.3599871515074476,0.029678198687287553,-0.00301326199049193,-0.11712927472922761,-0.0010049344991000608,-0.01195040021191938,-0.005346922687023931,0.06282000611276789,0.05235001063777568,-2.000278213287743e-10,1.5485653432900649e-09,0.46073686009354975,0.04073204234454322,0.501468902438093,
2.364999999999963,500,-0.05311165349175976,-0.997573142596401,28.512130823635015,46.152699999999996,1000,1000,1000,1000,-0.03510602189042144,-0.0006696103679436826,0.002294271188640818,-0.07029484894143179,-0.29542908333083057,-9.798269223092328,-0.002346000455247766,-0.0043782514829100545,-0.36024689830394724,0.028079878156102543,-0.003066048423484935,-0.11696792858774342,-0.000942562158701078,-0.011023502768635304,-0.005076525818661609,0.06282000611276789,0.05235001063777568,-2.000278213287743e-10,1.5485653432900649e-09,0.4556284553505252,0.040737748636361024,0.49636620398688625,
2.4149999999999707,520,-0.05311165349175976,-0.997573142596401,28.512130823635015,46.152699999999996,1000,1000,1000,1000,-0.02842307633916509,0.0006677165605926978,-0.00275761582931148,-0.028526135223512234,-0.19456759348282565,-9.803790685921294,-0.002390352559583785,-0.004933660355136311,-0.36049167703979634,0.026535431139042137,-0.0031427156233401108,-0.11699544270934166,-0.0006527416838603309,-0.01089097593507321,-0.004730607494703677,0.06282000611276789,0.05235001063777568,-2.000278213287743e-10,1.5485653432900649e-09,0.45699891070767523,0.040743776507943884,0.4977426872156191,
2.4649999999999785,540,-0.05311165349175976,-0.997573142596401,28.512130823635015,46.152699999999996,1000,1000,1000,1000,-0.028048618560456613,-0.003032786013815716,-0.00047497697674364625,2.1029846830250554e-05,-0.26448015346537196,-9.792745810480808,-0.0024342814381795815,-0.005463889618990604,-0.3607225011777538,0.02501701507682624,-0.003185679019585601,-0.11710842679418196,-0.0010342353172726854,-0.010641035001638034,-0.004468203677885055,0.06282000611276789,0.05235001063777568,-2.000278213287743e-10,1.5485653432900649e-09,0.4605420838624833,0.0407373653830142,0.5012794492454975,
2.5149999999999864,560,-0.05311165349175976,-0.997573142596401,28.512130823635015,46.152699999999996,1000,1000,1000,1000,-0.030881980282270512,-0.001342777597720405,0.002596151413408628,-0.05389836404032536,-0.2687407735753209,-9.79665633091844,-0.0024821000954980605,-0.006000014232483361,-0.36095018649963484,0.023521056752335692,-0.0032109194808700777,-0.11702397916319006,-0.0010951115122613815,-0.00986378019996153,-0.004227442766668756,0.06282000611276789,0.05235001063777568,-2.000278213287743e-10,1.5485653432900649e-09,0.4576941444446831,0.04073683756220891,0.498430982006892,
2.564999999999994,580,-0.05311165349175976,-0.997573142596401,28.512130823635015,46.152699999999996,1000,1000,1000,1000,-0.02655772575315792,0.001600713328853372,-0.0007884976897434273,-0.04904724776127814,-0.1655195339146111,-9.80520394159403,-0.002529924004190696,-0.006493014345693526,-0.36115408411417244,0.022164444871088564,-0.003250737110257375,-0.11696768167774661,-0.0007662670556358784,-0.009533088643370928,-0.0039545926856023195,0.06282000611276789,0.05235001063777568,-2.000278213287743e-10,1.5485653432900649e-09,0.4562278744282295,0.04074349606550199,0.49697137049373147,
2.6175000000000024,600,-0.05311165349175976,-0.997573142596401,28.512130823635015,46.152699999999996,1000,1000,1000,1000,-0.021284788009692225,-0.0012259391492599684,-0.009432842597934523,-0.012844735826545505,-0.03023057364907991,-9.807966140289896,-0.002585134837900187,-0.007024831900507463,-0.3613455711487997,0.02092338902993069,-0.003268938114364562,-0.11712851008100846,-0.001555219216848555,-0.013609264293645014,-0.0036934846184171386,0.06282000611276789,0.05235001063777568,-2.000278213287743e-10,1.5485653432900649e-09,0.4498751450260329,0.040752960380130494,0.49062810540616336,
2.66500000000001,620,-0.05311165349175976,-0.997573142596401,28.512130823635015,46.152699999999996,1000,1000,1000,1000,-0.02644620589727407,0.00043062788262173936,-0.008101413431768588,0.013623203798971618,-0.25202202502499294,-9.798524601810357,-0.002644012430810192,-0.007498512434323402,-0.36152729261355276,0.019561100994865483,-0.0032807324145692537,-0.11768462723756887,-0.0006100526103673326,-0.008912453021003514,-0.0035246359585514317,0.06282000611276789,0.05235001063777568,-2.000278213287743e-10,1.5485653432900649e-09,0.46325571962846634,0.04074569374803356,0.5040014133765,
2.717500000000018,640,-0.05311165349175976,-0.997573142596401,28.512130823635015,46.152699999999996,1000,1000,1000,1000,-0.02345051852384828,0.0019118299626052866,0.004936494958144364,-0.035106105558389965,-0.13689161333795077,-9.805292270982735,-0.0026842859752727556,-0.007938615102964624,-0.36169768070156727,0.0183678366226023,-0.0032922087459095768,-0.11777970851578215,-0.0010048413175666984,-0.008328281025018732,-0.0033074044187700086,0.06282000611276789,0.05235001063777568,-2.000278213287743e-10,1.5485653432900649e-09,0.46388575425862993,0.040731939605866734,0.5046176938644966,
2.767500000000026,660,-0.05311165349175976,-0.997573142596401,28.512130823635015,46.152699999999996,1000,1000,1000,1000,-0.020875401508652292,-0.0009924828896048954,0.004566484494755049,-0.0011364626840274332,-0.16032200950756537,-9.799983258961623,-0.002736415192389377,-0.008353803504261504,-0.3618584813065025,0.01718408436825588,-0.0032922636330560617,-0.11744554807136998,-0.0010807171198026183,-0.008372245290440231,-0.003107103169397491,0.06282000611276789,0.05235001063777568,-2.000278213287743e-10,1.5485653432900649e-09,0.4527882521250843,0.04073989306092009,0.49352814518600435,
2.8150000000000333,680,-0.05311165349175976,-0.997573142596401,28.512130823635015,46.152699999999996,1000,1000,1000,1000,-0.0241682522307838,-0.0005293630640395105,-0.005896897205664134,-0.048969619090904457,-0.1876793948400573,-9.800426373687365,-0.0027847316659168346,-0.008754171207600385,-0.3620097729059978,0.01606545046117292,-0.003269753028075631,-0.11750726356978088,-0.0010628396922129455,-0.0077642664478236095,-0.002948491467459753,0.06282000611276789,0.05235001063777568,-2.000278213287743e-10,1.5485653432900649e-09,0.4556575910422957,0.04075140160923185,0.49640899265152755,
2.8675000000000415,700,-0.05311165349175976,-0.997573142596401,28.512130823635015,46.152699999999996,1000,1000,1000,1000,-0.020829434901509545,0.0019408047049793364,-0.0010409349898464044,-0.048139598890283256,-0.10678596888868078,-9.805343910543549,-0.0028331798741205185,-0.009141083869432434,-0.3621522207482532,0.015004929139558077,-0.003265963815914749,-0.11774671593683486,-0.0008552407855194749,-0.007457537086134845,-0.002765215084227294,0.06282000611276789,0.05235001063777568,-2.000278213287743e-10,1.5485653432900649e-09,0.4634374985248399,0.04074065871786862,0.5041781572427085,
2.9175000000000493,720,-0.05311165349175976,-0.997573142596401,28.512130823635015,46.152699999999996,1000,1000,1000,1000,-0.018455056783231463,-0.00047777148122219235,0.005363505732889961,-0.004350900123067398,-0.12954445275472817,-9.801612257481661,-0.0028848995101400667,-0.009509475258490805,-0.36228663825412444,0.013955352141739208,-0.0032526941384594206,-0.1175861037758579,-0.001053117145574223,-0.007417914371241183,-0.0025991521269782287,0.06282000611276789,0.05235001063777568,-2.000278213287743e-10,1.5485653432900649e-09,0.45768787602041633,0.040736355724548305,0.49842423174496464,
2.967500000000057,740,-0.05311165349175976,-0.997573142596401,28.512130823635015,46.152699999999996,1000,1000,1000,1000,-0.021396271155356767,-0.00011920943775344573,-0.0013911613322810576,-0.04495697461202623,-0.15459206892107824,-9.80172253808023,-0.002934480736096174,-0.00986409673110378,-0.3624131731342896,0.012963966352193892,-0.0032170618601830244,-0.11745537108694365,-0.001088984709241152,-0.006879875374362594,-0.002464315931353311,0.06282000611276789,0.05235001063777568,-2.000278213287743e-10,1.5485653432900649e-09,0.4538720208909363,0.04074819930077094,0.49462022019170726,
3.017500000000065,760,-0.05311165349175976,-0.997573142596401,28.512130823635015,46.152699999999996,1000,1000,1000,1000,-0.018508171347588975,0.001985772199244783,-0.0036731252013786995,-0.045134304530760484,-0.08223320780373687,-9.805395819735002,-0.0029833503172019588,-0.010207364660121317,-0.36253229099172984,0.01202382666576824,-0.0031983776715656807,-0.11763791015503887,-0.0008537685068705186,-0.006619907387910553,-0.002312394619386379,0.06282000611276789,0.05235001063777568,-2.000278213287743e-10,1.5485653432900649e-09,0.4602135373846963,0.04074724673820394,0.5009607841229002,
3.0675000000000727,780,-0.05311165349175976,-0.997573142596401,28.512130823635015,46.152699999999996,1000,1000,1000,1000,-0.016336593276654834,-0.00016679919748678726,0.002821841564647965,-0.007236938926223888,-0.10153219920877016,-9.802857118985804,-0.003033445328292693,-0.010534315415369281,-0.36264465649319294,0.011093684464029717,-0.0031725580596075292,-0.11765957625545626,-0.0010190075421374466,-0.006575468863517986,-0.0021740803474852802,0.06282000611276789,0.05235001063777568,-2.000278213287743e-10,1.5485653432900649e-09,0.46054479626633515,0.04073837476496514,0.5012831710313003,
3.11500000000008,800,-0.05311165349175976,-0.997573142596401,28.512130823635015,46.152699999999996,1000,1000,1000,1000,-0.01892297978541827,0.00017540360693395934,0.0018447045345883065,-0.042400540009380566,-0.12486939836080416,-9.802774408065748,-0.003082492960819292,-0.010848246599455123,-0.36275048337224114,0.010215548511009769,-0.0031273531398794932,-0.11749639187776674,-0.0010802692307627483,-0.0060891767412586196,-0.002059923214069267,0.06282000611276789,0.05235001063777568,-2.000278213287743e-10,1.5485653432900649e-09,0.45524073598448345,0.04074409846016341,0.49598483444464686,
3.1675000000000884,820,-0.05311165349175976,-0.997573142596401,28.512130823635015,46.152699999999996,1000,1000,1000,1000,-0.01642812441400815,0.0020316424107482568,-0.0030276926296321704,-0.04228145567169352,-0.06079680585728039,-9.805441199765193,-0.0031312919122273605,-0.011152158950189686,-0.3628501162629686,0.009382934516083123,-0.0030974541971632488,-0.11754520364771415,-0.0008560492912258028,-0.005864241764777375,-0.001934203473263108,0.06282000611276789,0.05235001063777568,-2.000278213287743e-10,1.5485653432900649e-09,0.4572786728495568,0.04074946155399816,0.498028134403555,
3.217500000000096,840,-0.05311165349175976,-0.997573142596401,28.512130823635015,46.152699999999996,1000,1000,1000,1000,-0.014463553344211486,7.982860384423726e-05,-0.00011077114272870987,-0.008766140529469918,-0.07690767308198818,-9.803791592633903,-0.0031799710057005184,-0.011442048089206278,-0.3629440606918281,0.008558895301669188,-0.0030622199640742195,-0.11765233178848983,-0.000978532610140964,-0.005828974963358921,-0.001818510147970666,0.06282000611276789,0.05235001063777568,-2.000278213287743e-10,1.5485653432900649e-09,0.46070556339299146,0.040742780037318634,0.5014483434303101,
3.267500000000104,860,-0.05311165349175976,-0.997573142596401,28.512130823635015,46.152699999999996,1000,1000,1000,1000,-0.016734826154717674,0.00037476949563251577,0.0025836211953502676,-0.03994387381473319,-0.09827139345426082,-9.803618246055557,-0.003227456656367909,-0.011720010063138435,-0.3630325623520714,0.007781234868641778,-0.003010266810416466,-0.11756153653635056,-0.0010453454618967286,-0.005387609975674131,-0.0017218912236287177,0.06282000611276789,0.05235001063777568,-2.000278213287743e-10,1.5485653432900649e-09,0.4575522920414831,0.040742283387878005,0.4982945754293611,
3.317500000000112,880,-0.05311165349175976,-0.997573142596401,28.512130823635015,46.152699999999996,1000,1000,1000,1000,-0.014564293625809088,0.0020459827046871272,-0.00097223987967345,-0.039773585581101036,-0.04181674956852853,-9.805494070081165,-0.0032752330810227395,-0.011988763003863648,-0.36311590769705226,0.007044427179781705,-0.002972153696052354,-0.11750981016068617,-0.0008493368775988073,-0.005185293059341497,-0.0016182054895902264,0.06282000611276789,0.05235001063777568,-2.000278213287743e-10,1.5485653432900649e-09,0.4561314244753229,0.040748509883053556,0.49687993435837646,
3.3650000000001192,900,-0.05311165349175976,-0.997573142596401,28.512130823635015,46.152699999999996,1000,1000,1000,1000,-0.01279778849840465,0.0002881188501304798,-0.0016209154745578135,-0.009588246885198284,-0.05530193960120483,-9.804487158454382,-0.003322493619481664,-0.012245398160316265,-0.36319446774072767,0.0063148806928762236,-0.002930085649091675,-0.11760249106853927,-0.0009397095850334566,-0.005162964500886486,-0.0015212744033622346,0.06282000611276789,0.05235001063777568,-2.000278213287743e-10,1.5485653432900649e-09,0.45931872826459746,0.04074647965192744,0.5000652079165249,
3.415000000000127,920,-0.05311165349175976,-0.997573142596401,28.512130823635015,46.152699999999996,1000,1000,1000,1000,-0.014802856950387293,0.0005118477249870666,0.0015559202648980101,-0.03730022753882063,-0.07465036811657637,-9.80428200090712,-0.0033680984667193103,-0.012491473385700924,-0.3632684793924438,0.0056263039720526745,-0.002873631632539324,-0.11760059313153282,-0.0009974636123242816,-0.004767480535213465,-0.001439244075162502,0.06282000611276789,0.05235001063777568,-2.000278213287743e-10,1.5485653432900649e-09,0.45908414472015785,0.04074314700864623,0.4998272917288041,
3.4675000000001353,940,-0.05311165349175976,-0.997573142596401,28.512130823635015,46.152699999999996,1000,1000,1000,1000,-0.012901609259015819,0.002019693053632905,0.0006966510911946607,-0.0374259821084293,-0.024885465050979348,-9.805556030391614,-0.003414091682621899,-0.012729049030909875,-0.36333819995551964,0.004974563529205921,-0.0028297637790597515,-0.11752251515606373,-0.0008286697970994571,-0.004580201327314014,-0.0013539585774077145,0.06282000611276789,0.05235001063777568,-2.000278213287743e-10,1.5485653432900649e-09,0.45658674866529797,0.04074675904858778,0.49733350771388574,
3.5150000000001427,960,-0.05311165349175976,-0.997573142596401,28.512130823635015,46.152699999999996,1000,1000,1000,1000,-0.011312680573290912,0.00045803718242482623,-0.0015207732660212953,-0.010111378789358728,-0.03629951143163744,-9.805004296248534,-0.0034596399627905947,-0.012955927097697923,-0.36340390783317483,0.004329169208327009,-0.002782997570766715,-0.11755490192629933,-0.0009005309579195668,-0.004566941099606496,-0.0012728806654101967,0.06282000611276789,0.05235001063777568,-2.000278213287743e-10,1.5485653432900649e-09,0.4578685777235185,0.040748146649363166,0.4986167243728817,
3.567500000000151,980,-0.05311165349175976,-0.997573142596401,28.512130823635015,46.152699999999996,1000,1000,1000,1000,-0.013093169171849876,0.0006112864176448155,0.0001431021186650213,-0.034528108096497194,-0.05379700753166955,-9.804794964640653,-0.003503285870749812,-0.013173613823001005,-0.36346580666115424,0.003719689455979889,-0.0027238402196050893,-0.117601397810761,-0.000946054876079401,-0.00421820978917563,-0.0012029670243633578,0.06282000611276789,0.05235001063777568,-2.000278213287743e-10,1.5485653432900649e-09,0.45933935513696866,0.04074535877959378,0.5000847139165624,
3.6175000000001587,1000,-0.05311165349175976,-0.997573142596401,28.512130823635015,46.152699999999996,1000,1000,1000,1000,-0.011425354321088429,0.0019614700825931583,0.0012230758297816886,-0.03506438930876107,-0.009789313223651949,-9.805620852367749,-0.0035471014874468216,-0.013383615459386471,-0.36352412660990785,0.003143328094046212,-0.002676183406454514,-0.11755194090089767,-0.0007969273046069213,-0.004044392392281982,-0.0011328278004975733,0.06282000611276789,0.05235001063777568,-2.000278213287743e-10,1.5485653432900649e-09,0.45765163678931803,0.04074589322544539,0.4983975300147634,
3.6675000000001665,1020,-0.05311165349175976,-0.997573142596401,28.512130823635015,46.152699999999996,1000,1000,1000,1000,-0.009990819614807401,0.000585772452286791,-0.0006068400663754532,-0.01045983088423436,-0.0195239714102465,-9.805389390748486,-0.0035905740878387424,-0.01358400966782447,-0.36357909072705413,0.0025727248443381807,-0.0026264717303006277,-0.11753300259056432,-0.00085782830067198,-0.004034652272157695,-0.0010652517892252773,0.06282000611276789,0.05235001063777568,-2.000278213287743e-10,1.5485653432900649e-09,0.4571931059517427,0.040748150725792916,0.4979412566775356,
3.715000000000174,1040,-0.05311165349175976,-0.997573142596401,28.512130823635015,46.152699999999996,1000,1000,1000,1000,-0.011575285133217485,0.0006840829987984549,-0.0006919443122352424,-0.03179006558104101,-0.03541305969632814,-9.805187622496328,-0.0036321662435201156,-0.01377637914832129,-0.3636308664466418,0.0020335619067134345,-0.002566057411352876,-0.1175791236307891,-0.0008943661014414971,-0.003729916783364589,-0.0010055469887549076,0.06282000611276789,0.05235001063777568,-2.000278213287743e-10,1.5485653432900649e-09,0.4587613005310364,0.04074740479431023,0.49950870532534664,
3.7650000000001818,1060,-0.05311165349175976,-0.997573142596401,28.512130823635015,46.152699999999996,1000,1000,1000,1000,-0.010117343514959383,0.0018845779763833192,0.0008358096920000898,-0.032653548448166744,0.0035986369886496557,-9.805681749350054,-0.0036736658923225557,-0.013961963039902858,-0.36367964848022394,0.0015239872658747626,-0.0025161605548769,-0.11757218567275682,-0.0007592320899467474,-0.00357101098310365,-0.000947723665327413,0.06282000611276789,0.05235001063777568,-2.000278213287743e-10,1.5485653432900649e-09,0.45844966951356486,0.04074629188674789,0.49919596140031275,
3.81750000000019,1080,-0.05311165349175976,-0.997573142596401,28.512130823635015,46.152699999999996,1000,1000,1000,1000,-0.008818509273447434,0.0006737630479621743,0.00023615399754066757,-0.010618121885879515,-0.004685055197360895,-9.805676061152626,-0.003714810744557328,-0.014138893212904126,-0.3637256257059634,0.0010197007171456585,-0.0024649154353400047,-0.11753553154584963,-0.0008111306608649692,-0.0035614803637340495,-0.0008915851140732016,0.06282000611276789,0.05235001063777568,-2.000278213287743e-10,1.5485653432900649e-09,0.45731325528640276,0.04074757774798632,0.4980608330343891,
3.8650000000001974,1100,-0.05311165349175976,-0.997573142596401,28.512130823635015,46.152699999999996,1000,1000,1000,1000,-0.0102257948916672,0.0007333677491978018,-0.0007501347696393796,-0.029192487574598004,-0.019172978803693175,-9.805487564443089,-0.0037542107381180047,-0.01430872034789516,-0.36376893973003405,0.0005430366788420729,-0.0024044040276239237,-0.1175552266478025,-0.0008423059762537303,-0.0032950787805089837,-0.0008406399083370957,0.06282000611276789,0.05235001063777568,-2.000278213287743e-10,1.5485653432900649e-09,0.45805473453790385,0.04074852132942119,0.49880325586732505,
3.915000000000205,1120,-0.05311165349175976,-0.997573142596401,28.512130823635015,46.152699999999996,1000,1000,1000,1000,-0.00895756483123773,0.0017982321705915707,0.00016869438016064807,-0.03025063187937619,0.015410197899697367,-9.805734954766304,-0.003793353519420402,-0.014472632443446605,-0.3638097450868532,9.268494012045467e-05,-0.002353484480809315,-0.11757471510440708,-0.0007191583575883476,-0.0031523376675215635,-0.0007928046694995272,0.06282000611276789,0.05235001063777568,-2.000278213287743e-10,1.5485653432900649e-09,0.45865625390713505,0.040747420409710966,0.499403674316846,
3.9675000000002134,1140,-0.05311165349175976,-0.997573142596401,28.512130823635015,46.152699999999996,1000,1000,1000,1000,-0.007781916889814136,0.000729664891269503,0.000569280628235843,-0.010568577512662998,0.00843023734406552,-9.805886780223089,-0.0038320670076441264,-0.01462881290187182,-0.36384820269232887,-0.00035287560403103325,-0.0023018172898150967,-0.11754852095240878,-0.0007621350894928365,-0.0031425500222382477,-0.0007462312960876763,0.06282000611276789,0.05235001063777568,-2.000278213287743e-10,1.5485653432900649e-09,0.45779631711491425,0.040747300670420074,0.49854361778533435,
4.017500000000221,1160,-0.05311165349175976,-0.997573142596401,28.512130823635015,46.152699999999996,1000,1000,1000,1000,-0.009027234515258649,0.0007610231718420268,-0.00035681380414959255,-0.026758767859020934,-0.004788940477163285,-9.805716927170453,-0.0038691595325756447,-0.01477863363082157,-0.3638844403884582,-0.0007740670117412843,-0.002242123771728994,-0.11754254646667547,-0.0007895189445228771,-0.0029082751469990823,-0.0007028731578231236,0.06282000611276789,0.05235001063777568,-2.000278213287743e-10,1.5485653432900649e-09,0.45767265634513793,0.04074877975330376,0.4984214360984417,
4.067500000000229,1180,-0.05311165349175976,-0.997573142596401,28.512130823635015,46.152699999999996,1000,1000,1000,1000,-0.007927404506616536,0.001706449083345995,-0.0002789274261469169,-0.02792170695080755,0.025810099950332094,-9.805780710232387,-0.003905920642937782,-0.014923292638518503,-0.3639185762548658,-0.0011718754257931756,-0.0021911406826925594,-0.11756510566719763,-0.0006781350423979605,-0.0027813177625102513,-0.0006631996430211331,0.06282000611276789,0.05235001063777568,-2.000278213287743e-10,1.5485653432900649e-09,0.45842628518089773,0.040748551900470324,0.49917483708136806,
4.117500000000237,1200,-0.05311165349175976,-0.997573142596401,28.512130823635015,46.152699999999996,1000,1000,1000,1000,-0.0068662775264609005,0.00076175992958749,0.00043966037028673614,-0.010338830760214574,0.019993040013158114,-9.806038240693058,-0.003942195430946054,-0.015061116535663019,-0.3639507423973542,-0.0015654359468647966,-0.0021399073018912324,-0.11755887323213125,-0.0007128427874244958,-0.002772295751523585,-0.0006245331747422087,0.06282000611276789,0.05235001063777568,-2.000278213287743e-10,1.5485653432900649e-09,0.4582055978086495,0.040747594314560515,0.49895319212321,
4.165000000000244,1220,-0.05311165349175976,-0.997573142596401,28.512130823635015,46.152699999999996,1000,1000,1000,1000,-0.00796514164352622,0.0007704356821791311,6.035024672925509e-05,-0.02447241567738069,0.007964365492500824,-9.805891662160949,-0.003976935208022169,-0.015193232198598009,-0.3639810593523566,-0.0019374695620704094,-0.0020817333670149654,-0.11754205164603833,-0.0007365484065997355,-0.00256513936097163,-0.0005877263750607149,0.06282000611276789,0.05235001063777568,-2.000278213287743e-10,1.5485653432900649e-09,0.45767912302805175,0.04074866692083254,0.49842778994888426,
4.2175000000002525,1240,-0.05311165349175976,-0.997573142596401,28.512130823635015,46.152699999999996,1000,1000,1000,1000,-0.007011500260845245,0.001610704053742603,-0.00035911137381572475,-0.025699987906661993,0.034977325792577924,-9.805820806175213,-0.004011301541895006,-0.015320802752914602,-0.36400961822138383,-0.0022886785247884897,-0.0020314404200164646,-0.11755341209100205,-0.0006365337427396837,-0.0024522360933208697,-0.0005548042784642819,0.06282000611276789,0.05235001063777568,-2.000278213287743e-10,1.5485653432900649e-09,0.4580875578390749,0.04074926443786248,0.4988368222769374,
4.26750000000026,1260,-0.05311165349175976,-0.997573142596401,28.512130823635015,46.152699999999996,1000,1000,1000,1000,-0.006057007522044633,0.0007760975298897267,0.0001310910805984973,-0.0099825846694822,0.030162521221216997,-9.806143208019714,-0.004045168318849761,-0.015442369232251122,-0.36403652185035146,-0.002636172712180997,-0.001981288973393856,-0.1175612235388714,-0.0006644582686696032,-0.002444979075411716,-0.0005226469607190444,0.06282000611276789,0.05235001063777568,-2.000278213287743e-10,1.5485653432900649e-09,0.45834593042028743,0.0407482599179514,0.4990941903382388,
4.317500000000268,1280,-0.05311165349175976,-0.997573142596401,28.512130823635015,46.152699999999996,1000,1000,1000,1000,-0.0070258517619304385,0.0007659509341567308,0.0002568569104702952,-0.022318825088945365,0.01926134708768128,-9.806023146426378,-0.004077577084894324,-0.01555883795262661,-0.3640618836119877,-0.0029646869131958803,-0.001925153163947868,-0.11754770362752086,-0.0006844742256910439,-0.002261525893258182,-0.0004914362264077585,0.06282000611276789,0.05235001063777568,-2.000278213287743e-10,1.5485653432900649e-09,0.45789201439230603,0.040748626456250894,0.4986406408485569,
4.367500000000276,1300,-0.05311165349175976,-0.997573142596401,28.512130823635015,46.152699999999996,1000,1000,1000,1000,-0.0061976206142075815,0.0015123789007554706,-0.00019662468234595614,-0.02359007951189655,0.04307600551930742,-9.805857216421993,-0.0041095682991917435,-0.015671271512339432,-0.3640857774416935,-0.0032746119416522707,-0.0018761334334823348,-0.11754646020843677,-0.0005947134820227635,-0.00216056909576152,-0.00046414623968001707,0.06282000611276789,0.05235001063777568,-2.000278213287743e-10,1.5485653432900649e-09,0.4578784316446571,0.0407495392995156,0.49862797094417266,
4.417500000000284,1320,-0.05311165349175976,-0.997573142596401,28.512130823635015,46.152699999999996,1000,1000,1000,1000,-0.005341022407108245,0.000776386602046729,-0.0001029171315813706,-0.009547699368017986,0.03909643534803339,-9.806213236332734,-0.004141070785619586,-0.015778432870290564,-0.3641082801201358,-0.003581287002016656,-0.001827547975751871,-0.11755734268137005,-0.0006173991058507183,-0.002155343779126055,-0.0004373698256252829,0.06282000611276789,0.05235001063777568,-2.000278213287743e-10,1.5485653432900649e-09,0.45826175138013825,0.04074895656403511,0.49901070794417335,
4.465000000000291,1340,-0.05311165349175976,-0.997573142596401,28.512130823635015,46.152699999999996,1000,1000,1000,1000,-0.0061958889946391255,0.0007514488483094172,0.00022367542706878908,-0.020297990067668005,0.029249485361763507,-9.806119741799675,-0.0041712085630608775,-0.01588107402173394,-0.36412949487779644,-0.0038712810036412287,-0.0017738167397092406,-0.11755300143376124,-0.0006342044684635492,-0.0019932486056204674,-0.0004108902152823623,0.06282000611276789,0.05235001063777568,-2.000278213287743e-10,1.5485653432900649e-09,0.45809760959318535,0.04074883416355165,0.498846443756737,
4.517500000000299,1360,-0.05311165349175976,-0.997573142596401,28.512130823635015,46.152699999999996,1000,1000,1000,1000,-0.005475500410123641,0.0014134551296020093,5.7791943741111195e-06,-0.02158848519937593,0.05024017305222473,-9.805890580642075,-0.004200885444265657,-0.015980124385733943,-0.36414948500475364,-0.0041446729386299,-0.0017265075380422127,-0.1175454821146397,-0.0005533236554840426,-0.001902503973054705,-0.00038830265711869625,0.06282000611276789,0.05235001063777568,-2.000278213287743e-10,1.5485653432900649e-09,0.4578558192748272,0.04074958899032748,0.4986054082651547,
4.567500000000307,1380,-0.011521794995267684,0.019964560436866584,-1.7429109908921918,124.05269999999999,1550,1704,1610,0,-0.004707297206204682,0.0007651922400649567,-0.00016669249395128308,-0.009062264992340148,0.04694653398697975,-9.806257482374352,-0.004230082558881375,-0.016074529462434525,-0.3641683071735005,-0.004415192386359797,-0.0016798428656379315,-0.11755183753699454,-0.0005717944905305683,-0.0018989366314356353,-0.00036601114018963764,0.06282000611276789,0.05235001063777568,-2.000278213287743e-10,1.5485653432900649e-09,0.458102381700594,0.0407494594856016,0.4988518411861956,
4.617500000000315,1400,0.01152898536279674,0.019963529647439426,-1.762668602789618,6.19,1550,1704,1611,1513,-0.00546242761222421,0.0007296395032956859,8.41890530689983e-05,-0.018416188912041966,0.03806625765981172,-9.80618846404014,-0.004258023604875375,-0.016164945276867505,-0.3641860520230835,-0.004671084776849898,-0.0016287608092666616,-0.11755478537210821,-0.0005861643692899768,-0.001756232257512563,-0.00034351430455685294,0.06282000611276789,0.05235001063777568,-2.000278213287743e-10,1.5485653432900649e-09,0.45818433155178023,0.04074922547902258,0.49893355703080283,
4.667500000000323,1420,0.01152898536279674,0.019963529647439426,-1.762668602789618,6.19,1550,1704,1611,1513,-0.004835771886949359,0.0013159903795944522,0.00011623937295680266,-0.019696518533088823,0.05657556163635025,-9.805920959903757,-0.004285477586040964,-0.016252175674306004,-0.36420277479600593,-0.004912171440353288,-0.001583475237404056,-0.1175479617635759,-0.0005130822010327532,-0.0016745502579746715,-0.0003248304191615662,0.06282000611276789,0.05235001063777568,-2.000278213287743e-10,1.5485653432900649e-09,0.4579466310946476,0.04074963503574656,0.4986962661303942,
4.71500000000033,1440,0.01152898536279674,0.019963529647439426,-1.762668602789618,6.19,1550,1704,1611,1513,-0.004146638813265907,0.0007449063316352509,-0.00010335906684514799,-0.008539765248062704,0.05384976082432785,-9.806283727714522,-0.004312450969749069,-0.01633529895273175,-0.36421851829277946,-0.005150693089666994,-0.0015389821984643302,-0.1175482469085208,-0.000527852662335428,-0.0016720560788403183,-0.0003062997445569506,0.06282000611276789,0.05235001063777568,-2.000278213287743e-10,1.5485653432900649e-09,0.4579906005213284,0.04074973466251133,0.49874033518383976,
4.7675000000003385,1460,0.01152898536279674,0.019963529647439426,-1.762668602789618,6.19,1550,1704,1611,1513,-0.004813943727415411,0.0007022710435907444,-3.5433994057488265e-05,-0.016675243332992484,0.04584361487076779,-9.806235321042566,-0.004338275908043588,-0.016414904324716643,-0.3642333603191508,-0.0053763940124037755,-0.0014906987667304323,-0.11755343568554742,-0.0005404248408056216,-0.0015467582859458877,-0.00028716592760573753,0.06282000611276789,0.05235001063777568,-2.000278213287743e-10,1.5485653432900649e-09,0.4581581210063634,0.040749644162740954,0.49890776516910434,
4.815000000000346,1480,0.023055856328743345,-2.6983068309411353e-07,-1.7429105830661817,6.19,1550,1703,1611,1513,-0.004269521845223245,0.0012214765399882117,0.00011479909206746214,-0.017920297505480118,0.062169953128721554,-9.80594784196542,-0.004363612169320882,-0.01649169813751227,-0.3642473483638991,-0.005588921014008672,-0.0014476469141940147,-0.11755072924008221,-0.0004744938347143322,-0.0014733965959134391,-0.0002717012098374422,0.06282000611276789,0.05235001063777568,-2.000278213287743e-10,1.5485653432900649e-09,0.45804816970851064,0.04074978243402186,0.49879795214253253,
4.865000000000354,1500,0.011529451844981206,-0.01996326470730443,-1.7626686028573924,6.19,1551,1703,1611,1513,-0.003651122946999955,0.0007179527923693022,-7.094876085995546e-06,-0.007989815291990946,0.059923375866846366,-9.806297050973983,-0.004388465551282403,-0.016564856511233222,-0.3642605159062322,-0.005799149912086047,-0.001405490743949743,-0.11754752935426191,-0.00048590299229311684,-0.0014715269357985447,-0.00025632583449715124,0.06282000611276789,0.05235001063777568,-2.000278213287743e-10,1.5485653432900649e-09,0.45796633871984743,0.04074987252544711,0.4987162112452945,
4.917500000000362,1520,0.011529451844981206,-0.01996326470730443,-1.7626686028573924,6.19,1551,1703,1611,1513,-0.004240499284034775,0.0006706737186112781,-7.792994727027274e-05,-0.015069184738692688,0.0527045805254839,-9.806265644023865,-0.004412263994502096,-0.01663490686605611,-0.36427292962421415,-0.0059981304487615825,-0.0013600816346185922,-0.11755100950321358,-0.0004969724325525164,-0.00136159657714995,-0.00024004987882714898,0.06282000611276789,0.05235001063777568,-2.000278213287743e-10,1.5485653432900649e-09,0.45808520066800257,0.04074997364279256,0.4988351743107951,
4.965000000000369,1540,0.011529451844981206,-0.01996326470730443,-1.7626686028573924,6.19,1551,1703,1611,1513,-0.0037683829703138772,0.0011306732382236752,5.316917980567308e-05,-0.016264818573866812,0.06710242059807482,-9.805971240788462,-0.004435590181812226,-0.01670248476086168,-0.3642846291077212,-0.006185409337428621,-0.0013193910808668792,-0.11755200421762751,-0.0004377726378989032,-0.0012959472374091722,-0.0002272300792361137,0.06282000611276789,0.05235001063777568,-2.000278213287743e-10,1.5485653432900649e-09,0.4580989677350804,0.04075001646112125,0.49884898419620166,
5.0175000000003775,1560,0.011529451844981206,-0.01996326470730443,-1.7626686028573924,6.19,1551,1703,1611,1513,-0.0032136219911703,0.0006865180529988422,5.2829533378121006e-05,-0.00742432237699551,0.06526590966415471,-9.806301490797638,-0.004458440659664279,-0.01676684894444434,-0.3642956409670039,-0.006370637169130007,-0.0012796660421523231,-0.11754868871621137,-0.0004462526528888604,-0.001294496710055918,-0.00021449026107934186,0.06282000611276789,0.05235001063777568,-2.000278213287743e-10,1.5485653432900649e-09,0.45800242226683174,0.040749982447395514,0.49875240471422727,
5.067500000000385,1580,0.011529451844981206,-0.01996326470730443,-1.7626686028573924,6.19,1551,1703,1611,1513,-0.0037336038957337596,0.0006361176370213134,-5.528335305748814e-05,-0.013587795565940067,0.05875886259409238,-9.806283664065894,-0.004480314225301391,-0.016828461290463375,-0.36430602308315635,-0.00654598525679706,-0.001237149414950253,-0.11754930126367101,-0.00045586549521993696,-0.0011979853357938204,-0.0002006557111419987,0.06282000611276789,0.05235001063777568,-2.000278213287743e-10,1.5485653432900649e-09,0.4580274636767872,0.04075018571034019,0.4987776493871274,
5.117500000000393,1600,0.011529451844981206,-0.01996326470730443,-1.7626686028573924,6.19,1551,1703,1611,1513,-0.003324790947170296,0.001043864583884069,-7.02515117775745e-06,-0.014729761678334756,0.07144737040345692,-9.805991234753197,-0.0045017377923733245,-0.016887901476422124,-0.3643158077118729,-0.006710945622029049,-0.0011988834833287663,-0.1175517303806315,-0.0004029470789624682,-0.001139406206835809,-0.0001900135602413517,0.06282000611276789,0.05235001063777568,-2.000278213287743e-10,1.5485653432900649e-09,0.45809413907370056,0.040750267531091865,0.4988444066047924,
5.167500000000401,1620,0.011529451844981206,-0.01996326470730443,-1.7626686028573924,6.19,1551,1703,1611,1513,-0.002827593805752485,0.0006522822106834164,5.925983812978917e-05,-0.006856911527150687,0.06996152579159712,-9.806299293559196,-0.004522705808000005,-0.016944507561718572,-0.3643250155964316,-0.006874087697906834,-0.0011616259897014513,-0.11755020700038683,-0.000409060779083608,-0.001138339243748351,-0.00017946256602299459,0.06282000611276789,0.05235001063777568,-2.000278213287743e-10,1.5485653432900649e-09,0.458050533241537,0.040750124862501964,0.49880065810403895,
5.217500000000409,1640,0.011529451844981206,-0.01996326470730443,-1.7626686028573924,6.19,1551,1703,1611,1513,-0.0032858705100964974,0.000599844112838468,-1.0274288956908858e-05,-0.012221390141655988,0.06410135079828647,-9.806292743176892,-0.004542766321668783,-0.01699867522503604,-0.3643336977319365,-0.007028549864748082,-0.0011219746974997886,-0.11754894345651273,-0.00041722583840894634,-0.0010535292179265094,-0.00016771498696635637,0.06282000611276789,0.05235001063777568,-2.000278213287743e-10,1.5485653432900649e-09,0.4580099366286393,0.04075031737037404,0.49876025399901336,
5.267500000000417,1660,0.011529451844981206,-0.01996326470730443,-1.7626686028573924,6.19,1551,1703,1611,1513,-0.0029321255946400133,0.0009612001263790005,-3.318715123064855e-05,-0.013309784224477133,0.07527413236070245,-9.806008440896818,-0.004562396483652106,-0.01705093250699532,-0.3643418803122725,-0.0071737881333672985,-0.001086147314265585,-0.11755079808969474,-0.000370005252127239,-0.001001318787302774,-0.00015887437874199,0.06282000611276789,0.05235001063777568,-2.000278213287743e-10,1.5485653432900649e-09,0.4580621094593717,0.04075047670998063,0.4988125861693523,
5.317500000000424,1680,0.011529451844981206,-0.01996326470730443,-1.7626686028573924,6.19,1551,1703,1611,1513,-0.0024870714492314073,0.0006163928160863817,3.280410587817286e-05,-0.006299523728024976,0.07408450316508643,-9.806292691297847,-0.004581599848633417,-0.017100695403446303,-0.36434957876394725,-0.0073174224052967715,-0.0010513481584220814,-0.11755111426921737,-0.00037432434719472576,-0.0010006471876773551,-0.00015013446596552082,0.06282000611276789,0.05235001063777568,-2.000278213287743e-10,1.5485653432900649e-09,0.4580778666082368,0.0407503016318308,0.4988281682400676,
5.367500000000432,1700,0.011529451844981206,-0.01996326470730443,-1.7626686028573924,6.19,1551,1703,1611,1513,-0.0028907065184658833,0.0005629267917825074,2.1512214605777353e-05,-0.010963097139605782,0.06881374031028566,-9.806295217800006,-0.004599963748687855,-0.017148299373750564,-0.3643568382531519,-0.0074534366668872485,-0.0010144994902395366,-0.11754957156659115,-0.00038115107660608653,-0.0009260966690973957,-0.00014016593349728236,0.06282000611276789,0.05235001063777568,-2.000278213287743e-10,1.5485653432900649e-09,0.45802373308633976,0.04075042176290735,0.4987741548492471,
5.41750000000044,1720,0.011529451844981206,-0.01996326470730443,-1.7626686028573924,6.19,1551,1703,1611,1513,-0.0025846570805567117,0.0008828742659567174,-2.6622533756080042e-05,-0.011997447806375735,0.07864514175338161,-9.80602320167885,-0.004617912994695605,-0.017194220673354937,-0.3643636804408953,-0.007581256913756099,-0.000981086600555576,-0.11755009871204436,-0.0003389700416804782,-0.000879552071296902,-0.00013282388149017668,0.06282000611276789,0.05235001063777568,-2.000278213287743e-10,1.5485653432900649e-09,0.4580334607547262,0.04075062505329462,0.4987840858080208,
5.4650000000004475,1740,0.011529451844981206,-0.01996326470730443,-1.7626686028573924,6.19,1551,1703,1611,1513,-0.0021867157658896396,0.0005796316184688658,2.9995397684546175e-06,-0.005759968670468175,0.07770191709725133,-9.806282877063278,-0.004635465713176957,-0.017237948394499027,-0.364370116118997,-0.007707663540734984,-0.0009487019077905869,-0.117551264753873,-0.0003419473701458585,-0.0008792561519845711,-0.00012558261085489534,0.06282000611276789,0.05235001063777568,-2.000278213287743e-10,1.5485653432900649e-09,0.4580783149716333,0.0407504833298015,0.49882879830143484,
5.517500000000456,1760,0.011529451844981206,-0.01996326470730443,-1.7626686028573924,6.19,1551,1703,1611,1513,-0.002542143257791463,0.0005261587335773404,2.8230525645206614e-05,-0.009808102337611107,0.07296744585409383,-9.80629291329984,-0.004652248298745756,-0.01727976781908221,-0.36437618509439423,-0.007827389142332216,-0.0009145658838777845,-0.11755047241324068,-0.0003476497647526543,-0.0008137594877322713,-0.00011712394557470149,0.06282000611276789,0.05235001063777568,-2.000278213287743e-10,1.5485653432900649e-09,0.45804658111665914,0.04075053244139922,0.49879711355805834,
5.565000000000463,1780,0.011529451844981206,-0.01996326470730443,-1.7626686028573924,6.19,1551,1703,1611,1513,-0.002277377942641213,0.0008091119758506302,-6.2594900307912495e-06,-0.01078592030607795,0.08161490732096525,-9.806036054647457,-0.004668631208157204,-0.017320104199581417,-0.3643819057136767,-0.00793983567042361,-0.0008835141412544877,-0.1175500150752328,-0.00030989159962322224,-0.0007722405677304808,-0.00011103019009581466,0.06282000611276789,0.05235001063777568,-2.000278213287743e-10,1.5485653432900649e-09,0.45802285932304154,0.04075072701638461,0.49877358633942614,
5.617500000000471,1800,0.011529451844981206,-0.01996326470730443,-1.7626686028573924,6.19,1551,1703,1611,1513,-0.0019218276974486144,0.0005426108073064503,-1.22705509391221e-05,-0.005242061223385474,0.08087448981910682,-9.806271401537686,-0.004684644669276134,-0.01735851124384182,-0.364387285093998,-0.00805103358817438,-0.0008534745121261539,-0.11755102898984301,-0.00031181977226771746,-0.0007722552245677198,-0.00010503227684903567,0.06282000611276789,0.05235001063777568,-2.000278213287743e-10,1.5485653432900649e-09,0.4580636173055861,0.040750641306120404,0.4988142586117065,
5.665000000000479,1820,0.011529451844981206,-0.01996326470730443,-1.7626686028573924,6.19,1551,1703,1611,1513,-0.0022347889833252204,0.0004900555217632846,1.7482643631559412e-05,-0.008751797626140551,0.07662612864942056,-9.80628709196232,-0.0046999567776758715,-0.0173952340677622,-0.36439235793863756,-0.008156380304968387,-0.0008219411673794169,-0.11755113190700535,-0.0003166386002235874,-0.0007147726873460628,-9.785196078698455e-05,0.06282000611276789,0.05235001063777568,-2.000278213287743e-10,1.5485653432900649e-09,0.4580613890518421,0.04075065482424617,0.4988120438760883,
