t,frame,xb,xa,xc,xp,pwm1,pwm2,pwm3,pwm4,p,q,r,accx,accy,accz,x,y,z,roll,pitch,yaw,vx,vy,vz,theta1,theta2,b1s1,a1s1,pwr1,pwr2,pwrsum
171.872499999852,64740,0.0230504587244532,0.0400124671711757,6.48052403348879,5.6447,1411,1566,1473,1520,-0.00376833707031419,0.00141801999877764,0.000608985560092989,-0.00552311545715392,-0.698735075255022,-9.79942360266976,0.436026837898972,-0.606269330395092,-20.8033661544035,0.0735982881402198,-0.00791964569111431,-0.113219263614352,0.00698265492006857,-0.0923592476352788,-3.60379228471673E-05,0.113085150497147,0.0985000256377757,-0.000402230704769536,-0.000698216003571668,0.746827985389122,0.0690968368115586,0.815924822200681
171.922499999852,64760,0.0230504604097719,0.040012056238492,6.48052403668825,5.6447,1411,1566,1473,1520,0.00219717411395299,-0.00819000558326781,0.000595668730854031,0.0062754954871439,-0.701801827898754,-9.7550365615179,0.436472235620933,-0.610867247751151,-20.8033320602333,0.0735326075319562,-0.00812319223542754,-0.113229955093924,0.0108680294566827,-0.0917739360405643,0.00142625033531727,0.112739430882955,0.0985000256377757,-0.000200526951369989,-0.00104745987217716,0.744443600534377,0.0690991390119404,0.813542739546317
171.972499999852,64780,0.0230504604097719,0.040012056238492,6.48052403668825,5.6447,1411,1566,1473,1520,0.013443141145561,-0.0100148872001492,-4.48823411753004E-05,-0.00663197342496753,-0.710151934750525,-9.80064171594972,0.437117446325574,-0.615433461839087,-20.8032908802059,0.0738994468104101,-0.00860979392854006,-0.113265165076587,0.0149335672373689,-0.0909614734871593,0.00028026974466658,0.113085150552978,0.0985000256377757,-0.000402230734178345,-0.000698208832796342,0.746890063075298,0.0691048378649057,0.815994900940203
172.022499999852,64800,0.0230504604097719,0.040012056238492,6.48052403668825,5.6447,1411,1566,1473,1520,0.0202194995762241,-0.000350576740843563,0.000138326886087862,-0.00533580535393079,-0.699523777236099,-9.79474140426996,0.437971804751977,-0.619962979201349,-20.8032984446533,0.0748077536267038,-0.00888031725635975,-0.113279178899055,0.0192833030639616,-0.0900845296690495,-0.00054115242420649,0.113085150552978,0.0985000256377757,-0.000402230734178345,-0.000698208832796342,0.746879621595808,0.069118040737795,0.815997662333603
172.072499999852,64820,0.0230504604097719,0.040012056238492,6.48052403668825,5.6447,1411,1566,1473,1520,0.0174561613793743,0.0066061889680759,-0.000265619336165985,0.00347776247071826,-0.706812603079529,-9.79320941668235,0.43904405481942,-0.624433850943414,-20.8033434122619,0.0757744402815961,-0.00872470432101591,-0.113265807144718,0.0236352235994086,-0.0886629587502339,-0.00124169963530748,0.113085150552978,0.0985000256377757,-0.000402230734178345,-0.000698208832796342,0.746947554443905,0.0691381380324985,0.816085692476403
172.122499999852,64840,0.0230504604097719,0.040012056238492,6.48052403668825,5.5668,1411,1566,1473,1521,0.00993223720956779,0.0101608502820796,-0.000659697285817359,-0.00711736994731886,-0.695506246276244,-9.79354047265262,0.440333493091254,-0.628824296582819,-20.803421631672,0.076455938354855,-0.00827755288535714,-0.11323044452668,0.0278914134304501,-0.0867263970508232,-0.00186975327072503,0.113085150552978,0.0971406706377757,-0.000402230734178345,-0.000698208832796342,0.744793543578805,0.0679422847494498,0.812735828328255
172.169999999852,64860,0.0230504604097719,0.040012056238492,6.48052403668825,5.5668,1411,1566,1473,1521,0.00190474522877971,0.00656844912094196,7.64223785425146E-05,-0.00546986239955485,-0.680897271297129,-9.7927402163412,0.441830465729398,-0.633117641629731,-20.8035308074319,0.0767356087652974,-0.0078245154322712,-0.113192323449504,0.031977993585744,-0.0848095618106277,-0.00247627442862786,0.113085150552978,0.0971406706377757,-0.000402230734178345,-0.000698208832796342,0.744196865077964,0.0678112949241478,0.812008160002112
172.222499999852,64880,0.0230504604097719,0.040012056238492,6.48052403668825,5.5668,1411,1566,1473,1521,0.00178182503943959,0.00273625797843651,-0.000210324329986358,0.00310698016857418,-0.690643294675812,-9.7922962047251,0.443525335102751,-0.637303536884823,-20.8036687927871,0.0768262745229806,-0.00760579727028405,-0.113176568868367,0.0358286437746749,-0.0826316890695778,-0.00303962833227473,0.113085150552978,0.0971406706377757,-0.000402230734178345,-0.000698208832796342,0.744545538106404,0.0678946651155743,0.812440203221978
172.272499999851,64900,0.0230504604097719,0.040012056238492,6.48052403668825,5.6447,1411,1566,1473,1520,0.00563403638621823,-0.00282667859541144,0.000416885824388733,-0.00759121906324932,-0.711062376125071,-9.79243684303605,0.445413342597273,-0.641378974477975,-20.8038336534782,0.0769658485329679,-0.00762516121712405,-0.113187100475242,0.0396429753007054,-0.0804876482821947,-0.0035632003776625,0.113085150552978,0.0985000256377757,-0.000402230734178345,-0.000698208832796342,0.746923724194208,0.0691295677979758,0.816053291992184
172.322499999851,64920,0.0461621375670676,0.0400084795127362,6.46071142412074,5.5668,1411,1566,1474,1521,0.0102754437645282,-0.000569318084790195,0.000387971115689493,-0.0061938086413633,-0.675058466623238,-9.73933327351793,0.447493472664084,-0.645344664429786,-20.8040184911532,0.0773702784560844,-0.00771943502938981,-0.11318952494029,0.0435578209731585,-0.0782031588660329,-0.00330066555493007,0.112739420463675,0.0971406706377757,-0.000805529500573154,-0.000698146418931908,0.741005193984603,0.0676500916331126,0.808655285617716
172.372499999851,64940,0.0461621375670676,0.0400084795127362,6.46071142412074,5.5668,1411,1566,1474,1521,0.0195590773085911,0.00445751511345503,0.000529024071113315,0.00133587379054166,-0.691635592669274,-9.75142377089812,0.449764424378841,-0.649190077849285,-20.8041373128939,0.0781589078261829,-0.00766813543617599,-0.113174420677071,0.0472992738100436,-0.0756736036420974,-0.00158544621215466,0.112739420463675,0.0971406706377757,-0.000805529500573154,-0.000698146418931908,0.741958262553774,0.0678333947946584,0.809791657348432
172.422499999851,64960,0.0230500958988294,0.0400122631673388,6.48052403674992,5.6447,1411,1566,1473,1520,0.0135022804512097,0.0122297588724121,0.000197211682958466,-0.00757137446247155,-0.711751707713694,-9.80481389613022,0.452226309456519,-0.652891578598118,-20.8041969142612,0.0790425304547806,-0.00724219132998132,-0.113146111822298,0.0511146837878671,-0.0724795175562453,-0.00147988399158112,0.113085150554054,0.0985000256377757,-0.000402224373462401,-0.000698212443704729,0.747095848475719,0.0691503334847804,0.816246181960499
172.472499999851,64980,0.0230500958988294,0.0400122631673388,6.48052403674992,5.6447,1411,1566,1473,1520,0.00237032264280646,0.0104763300917639,-0.000188692256280349,-0.00532314044980253,-0.701233483744745,-9.79362579674216,0.454875881634121,-0.656427258270207,-20.8042925025757,0.0794252730027681,-0.00663217375802763,-0.113114643591076,0.0548177130970544,-0.0690046400558874,-0.00227647270223088,0.113085150554054,0.0985000256377757,-0.000402224373462401,-0.000698212443704729,0.747071041108386,0.0691592246014962,0.816230265709882
172.522499999851,65000,0.0230500958988294,0.0400122631673388,6.48052403674992,5.6447,1411,1566,1473,1520,-0.00210392206331411,0.00612004337697031,-0.000540585174490012,0.00255086173367915,-0.713192228297538,-9.79199081754337,0.457700447294587,-0.659790209640814,-20.8044212556726,0.0794251959914634,-0.00621669878242644,-0.113088170896569,0.0581645245966831,-0.0654580584505733,-0.0028469073369101,0.113085150554054,0.0985000256377757,-0.000402224373462401,-0.000698212443704729,0.747696618974898,0.0693037917801819,0.81700041075508
172.572499999851,65020,0.0461621375597969,0.0400084795090277,6.46071142413233,5.5668,1411,1566,1474,1521,0.00580979032671615,-0.000904237930681316,-2.27258333048358E-05,-0.0129147531107139,-0.69713978031865,-9.74849813175914,0.460688063127166,-0.662981550776555,-20.8045453833664,0.0794540135143664,-0.00611730426198832,-0.113071561330498,0.0612892153491233,-0.0620274669666489,-0.00160333890616776,0.112739420463877,0.0971406706377757,-0.000805529500446282,-0.000698146418867201,0.742766210912774,0.0680016472359373,0.810767858148711
172.622499999851,65040,0.0577193996391865,0.0200012672232798,6.48051477639702,5.5668,1411,1565,1474,1521,0.012555121959328,0.00510447012399561,0.000218901788937382,-0.00470719294518042,-0.687475904978926,-9.80128224474272,0.463830606487469,-0.665997514504041,-20.8045892188294,0.0799505044945893,-0.00605815161760862,-0.113058578878832,0.0644448659765151,-0.058523924154472,-0.000599802775849822,0.113084988960896,0.0971406706377757,-0.00100720372373162,-0.000349020564480887,0.745084756963145,0.0679847483063705,0.813069505269515
172.672499999851,65060,0.0230558594939487,1.98917799249327E-07,6.48053276646055,5.5668,1412,1565,1473,1521,0.0147158207159521,0.0130592824168587,0.000206625904550591,-0.0016144419893922,-0.697414319213742,-9.79428774378369,0.467126779050593,-0.668824770387562,-20.8046447713586,0.0806899997972521,-0.00561636459727149,-0.113021749071896,0.0673785299038835,-0.0546207434495878,-0.00153214030501603,0.113085302887505,0.0971406706377757,-0.000402324948197203,-1.92255024362709E-09,0.744536163975391,0.0678819868211766,0.812418150796568
172.722499999851,65080,0.0115022600536232,0.0200087020779989,6.46072941274926,5.6447,1412,1566,1473,1520,-0.00268978395388151,0.0208891729077885,0.000193404558738083,-0.00549327845257507,-0.713648790416393,-9.73949374445703,0.470570042263454,-0.671448352942824,-20.804730110309,0.0809981954046589,-0.00467132626266008,-0.112966829001794,0.0702232710448965,-0.0505123337466879,-0.00134502355027584,0.112739734365243,0.0985000256377757,-0.000200714637963546,-0.000349150302695725,0.744763278828082,0.0691985478305429,0.813961826658625
172.772499999851,65100,0.0230504587308525,0.0400124671751196,6.48052403349974,5.6447,1411,1566,1473,1520,-0.0155936221357568,0.00382352806559537,-0.000378210330263008,-0.00510915571605254,-0.705078789457591,-9.79442757673115,0.474143784941496,-0.673865929239501,-20.8047868124537,0.0804399436596395,-0.00400602596480275,-0.112918678200368,0.0726819689603491,-0.0461817297736556,-0.00145046756025513,0.113085150497338,0.0985000256377757,-0.000402230704881189,-0.000698216003640483,0.747605044292582,0.0692689590674137,0.816874003359995
172.822499999851,65120,0.0461621375670358,0.0400084795057581,6.46071142412084,5.5668,1411,1566,1474,1521,0.000273446687172876,-0.00471121017131064,-0.000239316927666266,0.000312961423290493,-0.699604906224413,-9.75044077032887,0.477829591706108,-0.67608010483464,-20.804839294115,0.0800098062362035,-0.00408614144219138,-0.112918582387141,0.0747568581189836,-0.0423008158859281,-0.000190989797113423,0.112739420463676,0.0971406706377757,-0.000805529500572596,-0.000698146418810119,0.742931656152303,0.0680466799649783,0.810978336117281
172.872499999851,65140,0.0577193996391865,0.0200012672232798,6.48051477639702,5.5668,1411,1565,1474,1521,0.0139533016446162,-0.00224636570543744,-0.000623097400173122,-0.0150739394121671,-0.698793530843474,-9.80162671733596,0.481622836901695,-0.678098459678273,-20.8048296114058,0.0803604713428427,-0.00433601472687983,-0.112943571893382,0.0769656975439853,-0.0382754222506898,-8.00598115695826E-05,0.113084988960896,0.0971406706377757,-0.00100720372373162,-0.000349020564480887,0.745491634264314,0.0680569315099255,0.81354856577424
172.922499999851,65160,0.0461678987215373,1.95949565676179E-07,6.46072015288867,5.5668,1412,1565,1474,1521,0.0199889341668173,0.015319983148818,-0.000509727984473347,-0.00231880064324658,-0.695184314209764,-9.74217023140274,0.485525981893472,-0.679916842786948,-20.8048508300411,0.081310114322744,-0.00405526602502411,-0.112921861989466,0.079204571251218,-0.0342008203150415,-0.000290088173631819,0.112739572780675,0.0971406706377757,-0.000805630032718639,-1.87075456627994E-09,0.742952298749485,0.068065318326006,0.811017617075491
172.972499999851,65180,0.0461678987215373,1.95949565676179E-07,6.46072015288867,5.5668,1412,1565,1474,1521,0.00251535165267543,0.0251879208792647,-0.000212419914392269,-0.00367193386400534,-0.706012132570692,-9.75029593597848,0.489535368091883,-0.681521946503638,-20.8048197487182,0.0818886785732807,-0.00299361822243316,-0.112826208203266,0.0811030123531396,-0.0297778756577839,0.00143988785772519,0.112739572780675,0.0971406706377757,-0.000805630032718639,-1.87075456627994E-09,0.743068136775652,0.0680735390347391,0.811141675810391
173.022499999851,65200,0.0230504587308525,0.0400124671751196,6.48052403349974,5.5668,1411,1566,1473,1521,-0.0147812538477109,0.0210512927773666,-6.10820340203421E-05,-0.00876602587317876,-0.700389565143785,-9.79497191274259,0.493630991768649,-0.682897169149856,-20.8047675052547,0.0815057873866201,-0.00175860665287903,-0.112715311807817,0.0825911221024966,-0.0250965969322711,0.000693444561957049,0.113085150497338,0.0971406706377757,-0.000402230704881189,-0.000698216003640483,0.74549705894735,0.0680813482371104,0.81357840718446
173.072499999851,65220,0.0230504587308525,0.0400124671751196,6.48052403349974,5.5668,1411,1566,1473,1521,-0.0249255729906305,-0.0036378129015104,-6.4660877565569E-05,-0.00476076902609712,-0.691036485043846,-9.7930657342668,0.497787616986411,-0.684039401129553,-20.8047494559598,0.0803776019783934,-0.00128957921470776,-0.112676165207084,0.0836454183284098,-0.02062203420933,6.21915970970411E-05,0.113085150497338,0.0971406706377757,-0.000402230704881189,-0.000698216003640483,0.745516991190753,0.0680854536782158,0.813602444868969
173.122499999851,65240,0.0461621375670358,0.0400084795057581,6.46071142412084,5.5668,1411,1566,1474,1521,0.00359505966588881,-0.0124753857195945,0.0005665726154335,-0.000240682853229594,-0.702177978119811,-9.75125017834856,0.501988412811434,-0.684972555218177,-20.8047033575637,0.0798616288941706,-0.00180218619963234,-0.112703356793742,0.0844386370692163,-0.0167811117830234,0.00180862502271026,0.112739420463676,0.0971406706377757,-0.000805529500572596,-0.000698146418810119,0.743179322508622,0.0680930605357496,0.811272383044371
173.169999999851,65260,0.0577193996391865,0.0200012672232798,6.48051477639702,5.6447,1411,1565,1474,1520,0.0188286342036932,-0.00347911467225908,0.000247687177555446,-0.014994348765648,-0.716389431845036,-9.79581736832005,0.506239428716788,-0.685707650972935,-20.8046308253123,0.0804457015809357,-0.00224401537984726,-0.11273820267659,0.0855817629058516,-0.0127108968609035,0.00102501976612592,0.113084988960896,0.0985000256377757,-0.00100720372373162,-0.000349020564480887,0.747833843822371,0.0693052697466691,0.81713911356904
173.222499999851,65280,0.0577193996391865,0.0200012672232798,6.48051477639702,5.5668,1411,1565,1474,1521,0.0237415410290548,0.0165433867497587,-0.000296898092213453,-0.00407160232955086,-0.693345151137824,-9.7899086060524,0.510548553048505,-0.686238455855448,-20.8045953105766,0.0816274319601635,-0.00192792966492563,-0.112696828119769,0.0868243380017956,-0.0082782068122296,0.000446160774132308,0.113084988960896,0.0971406706377757,-0.00100720372373162,-0.000349020564480887,0.74561563606342,0.0681184099693779,0.813734046032798
173.272499999851,65300,0.0461678987215373,1.95949565676179E-07,6.46072015288867,5.5668,1412,1565,1474,1521,0.00243425574859291,0.028440325032875,7.2931990236904E-05,-0.00409833560940569,-0.708583705421967,-9.74694737103471,0.514913215149211,-0.686538032524702,-20.8045290659797,0.0823140519732699,-0.000750091795397837,-0.112592308254656,0.0876766267594517,-0.00358416055257506,0.00223596957731396,0.112739572780675,0.0971406706377757,-0.000805630032718639,-1.87075456627994E-09,0.743296760414731,0.0681261338212102,0.811422894235941
173.322499999851,65320,0.0230554969142963,3.27597132190742E-12,6.48053276925418,5.6447,1412,1565,1473,1520,-0.0165908272886415,0.0264606672735697,6.959092702665E-05,-0.00790809990347516,-0.718917455662965,-9.80256951016791,0.519308710823154,-0.686590458183565,-20.8043917607192,0.081967113601295,0.000657480083636039,-0.112485934451819,0.0880137618205488,0.001407982801187,0.00257757034477009,0.113085302936253,0.0985000256377757,-0.000402318621182282,1.54850816853624E-09,0.748119825364876,0.0693664734540454,0.817486298818921
173.37249999985,65340,0.0346062586543269,0.0200035616603385,6.50032909640917,5.6447,1411,1565,1473,1520,-0.0303218139908038,0.00421055371782772,-0.000594814474985667,-0.00329231172107111,-0.719498831527787,-9.83626851998822,0.523703846818021,-0.686399802410564,-20.8043106665924,0.0806760849855219,0.00149663289484718,-0.112420571362292,0.0877474366615059,0.00623505843033653,0.000202300431594235,0.113430748845108,0.0985000256377757,-0.000603879413545819,-0.000349060602407567,0.751674769196824,0.0696211140893809,0.821295883286205
173.42249999985,65360,0.0577193996391102,0.0200012672309704,6.48051477638589,5.5668,1411,1565,1474,1521,-0.0106395792543303,-0.00968780042196765,0.00042561229051342,-0.000623676494933471,-0.704730373088107,-9.73579259741135,0.528075285968418,-0.685991914504836,-20.8043023179586,0.0795998393179557,0.00129573696648818,-0.112418956182338,0.0871141980948424,0.0101086104943707,0.000986391075454605,0.11273942043506,0.0971406706377757,-0.000805535812900502,-0.000698142974327428,0.743308251171006,0.0681508707613937,0.8114591219324
173.47249999985,65380,0.0577193996391102,0.0200012672309704,6.48051477638589,5.6447,1411,1565,1474,1520,0.00997272252394906,-0.010977504825574,0.000157565408331533,-0.0149451947491038,-0.721315807060551,-9.79209415437954,0.53242104560281,-0.68538732605322,-20.8042660560092,0.0795628385217872,0.000714563298279364,-0.112464015230416,0.0867155738411549,0.0139946223525562,0.000459161097302777,0.113084988960702,0.0985000256377757,-0.00100720372373029,-0.00034902056461509,0.748599645390547,0.0694665610726744,0.818066206463221
173.52249999985,65400,0.0461678987215373,1.95949565676179E-07,6.46072015288867,5.5668,1412,1565,1474,1521,0.0222792357965905,0.0082710099882848,0.000214206117835192,-0.00141967086089852,-0.700888995533879,-9.7321216163003,0.536750437949187,-0.684594913755838,-20.8042541677543,0.0804943582484347,0.000602946739390673,-0.112446225715374,0.0865380481575562,0.0179073842674679,0.000165248514449891,0.112739572780675,0.0971406706377757,-0.000805630032718639,-1.87075456627994E-09,0.743327634864065,0.0681678854914894,0.811495520355554
173.57249999985,65420,0.0461678987215373,1.95949565676179E-07,6.46072015288867,5.5668,1412,1565,1474,1521,0.00818790784929093,0.0226377016348858,0.000130940971986819,-0.00440011230049106,-0.710918254011504,-9.7461672998572,0.54107109388566,-0.683592462354206,-20.8041934299915,0.0812886416999414,0.00141696618101109,-0.112371592417386,0.0862145149925374,0.0222368126263037,0.00215140758702927,0.112739572780675,0.0971406706377757,-0.000805630032718639,-1.87075456627994E-09,0.743544436333898,0.0681760213386369,0.811720457672535
173.62249999985,65440,0.0230554969142899,3.27597132190742E-12,6.48053276925417,5.5668,1412,1565,1473,1521,-0.0129650170998681,0.0252896666446784,4.15370828546198E-05,-0.00753661606907454,-0.704068168265938,-9.79385627194956,0.545367671305729,-0.682365492818281,-20.8040731112201,0.0811779059640014,0.00267556556867704,-0.112260727468443,0.0855435314551032,0.0269052275748391,0.0020739357058037,0.113085302936253,0.0971406706377757,-0.000402318621182158,1.54850816853624E-09,0.745974145280218,0.0681837350733873,0.814157880353605
173.67249999985,65460,-0.0116023590017554,0.0200105999553068,6.48053336928366,5.5668,1412,1566,1472,1521,-0.0373335945733155,0.00348397787852827,0.00093243598784955,-0.00122306567839563,-0.70240277400095,-9.7889349290452,0.549615309600989,-0.680918243198037,-20.8039904518294,0.0798816698706049,0.00353669895677359,-0.112142429780033,0.0843635125199914,0.0311009615442368,0.00136330223959178,0.113085313406768,0.0971406706377757,0.000202460964552809,-0.000349183420654761,0.745986296412259,0.0681891528006937,0.814175449212953
173.72249999985,65480,-0.0462554933790646,0.0400309090266509,6.48051657855358,5.5668,1412,1567,1471,1521,-0.0350889397303398,-0.018904928901456,0.00164540688878877,0.00506049835247225,-0.697907354135508,-9.79220319640049,0.553800469290014,-0.67927462705392,-20.8039257234699,0.0781109731096655,0.00311920380114625,-0.112094638910387,0.0831487038917054,0.034616631158447,0.00117982982893441,0.113085020408528,0.0971406706377757,0.000807158159436865,-0.000698537813949702,0.745995941425175,0.0681940314446237,0.814189972869799
173.77249999985,65500,-0.0924465137644855,0.0400462073606911,6.46067976159763,5.5668,1413,1568,1470,1521,-0.0214264160770621,-0.0443958733844205,0.00299564074788279,0.0157875139438189,-0.70695187598186,-9.74969018022169,0.557937612837196,-0.677482366967551,-20.8038223121273,0.0765848283265997,0.00147865036731321,-0.112087704632915,0.0825187143926541,0.0370386613118458,0.00300060848387537,0.112738867952646,0.0971406706377757,0.00161319146516246,-0.000698804769878724,0.743735715117293,0.0681967835562981,0.811932498673591
173.82249999985,65520,-0.115528321196381,0.040049502754789,6.48045660003314,5.5668,1413,1568,1469,1521,-0.00799418836926901,-0.0486455886707588,0.00282805094435505,0.00157673518650433,-0.709570048130264,-9.80472038855931,0.562073567603149,-0.675574861291703,-20.8036512633591,0.0758895351526867,-0.000865874323861013,-0.112116335868667,0.0830746272775944,0.0392410329442353,0.00317495953846876,0.113083973783346,0.0971406706377757,0.00201596900484903,-0.000698862274505719,0.746140863936453,0.0682021798537478,0.814343043790201
173.86999999985,65540,-0.150147930399614,0.0200296209418267,6.48041320755991,5.5668,1414,1568,1468,1521,0.00919740686118004,-0.045135530087454,0.00333865250037372,0.00967801465079037,-0.691614083903623,-9.79106010258228,0.566267304111789,-0.673574418695822,-20.8035120876195,0.0759822656702551,-0.00327959543971806,-0.112132173499592,0.0849457232869682,0.0409262791372959,0.00230210121116492,0.113083216584688,0.0971406706377757,0.00262008118544544,-0.000349515336869536,0.7460993944732,0.0682056269210674,0.814305021394267
173.92249999985,65560,-0.184767706235961,0.0400680443680627,6.4803436754057,5.5668,1414,1569,1467,1521,-0.0017802265761505,-0.0348964933570806,0.00393628009474868,0.0352736374672112,-0.705737888911339,-9.79746551092744,0.570582980828522,-0.671486972008944,-20.8033807961253,0.0762120292135923,-0.00519145465419511,-0.112107586435496,0.0879048341920971,0.0424229989281929,0.00328277038583907,0.113082003248597,0.0971406706377757,0.0032241962737897,-0.000699185825657337,0.745650842674383,0.0680828182953713,0.813733660969754
173.97249999985,65580,-0.230922204001794,0.0400823697986946,6.46043604559593,5.5668,1415,1570,1466,1521,-0.0183311239687872,-0.0415555235183339,0.00495338637394701,0.00577794256205758,-0.71107289413757,-9.74756799434379,0.575079558226445,-0.66932069576098,-20.8032247594108,0.0756985760183077,-0.0070505854630102,-0.112049244272032,0.09198011495463,0.0439804421280814,0.00345767439721557,0.112734615108417,0.0971406706377757,0.00402959225980348,-0.000699435804421864,0.742198112857769,0.0679016936793585,0.810099806537127
174.02249999985,65600,-0.253972966377187,0.040086533969465,6.48017737836061,5.5668,1415,1570,1465,1521,-0.0318579558963182,-0.0539140763079276,0.00495123258104412,0.0183237979301166,-0.679579826183644,-9.8017111022454,0.579807787639522,-0.667099501641298,-20.8030058322633,0.0743947106922494,-0.00940569791364668,-0.111979573411328,0.0973928169637835,0.0448777052112245,0.00501300205328325,0.11307910136516,0.0971406706377757,0.0044318280632541,-0.000699508469201816,0.746345981680239,0.0682114803520918,0.814557462032331
174.07249999985,65620,-0.253988319987416,0.0801731792813902,6.48015204444382,5.5668,1414,1571,1465,1521,-0.0273582328343655,-0.0786388115726798,0.00503343082193295,0.0473361824617755,-0.710756438794399,-9.81424990613015,0.584831253856183,-0.664848489333102,-20.8027367297954,0.0727571524717435,-0.0127219537608485,-0.111976060971478,0.103886763620223,0.0448725261327737,0.00604162510460739,0.113078659288312,0.0971406706377757,0.00443209598375258,-0.00139902042989491,0.746649001225495,0.0682134028348207,0.814862404060316
174.12249999985,65640,-0.28856909103115,0.0601435981259044,6.48006356427962,5.5668,1415,1571,1464,1521,-0.0124008182335071,-0.086517801858287,0.00519265867916841,0.00572607833769428,-0.719586916317823,-9.7653629907553,0.59023186681467,-0.662614756114092,-20.8024094160196,0.0717555156285036,-0.0168973034814185,-0.112023079791631,0.112304828418997,0.0443314796627179,0.00718438883580013,0.112732790110632,0.0971406706377757,0.00463343540570173,-0.00104940512552866,0.743817951852432,0.0682149693431027,0.812032921195535
174.17249999985,65660,-0.28856909103115,0.0601435981259044,6.48006356427962,5.5668,1415,1571,1464,1521,0.00430263148101918,-0.0848728240741638,0.0048157837426532,0.0219695417186647,-0.6746172599463,-9.80059738020907,0.596109091785666,-0.660432297235404,-20.8020711921037,0.0715486010575993,-0.0212543673180907,-0.11208473769878,0.123206865708436,0.043067222870051,0.00646506180938873,0.113077115309447,0.0971406706377757,0.00503553043846574,-0.00104950423873169,0.746403355868481,0.0682173975443853,0.814620753412866
174.21999999985,65680,-0.28856909103115,0.0601435981259044,6.48006356427962,5.5668,1415,1571,1464,1521,0.00669099399055541,-0.0746627841674448,0.00446526721064915,0.0542944586903896,-0.711558159213026,-9.7987515543217,0.602571983598334,-0.658312726083111,-20.8017577026898,0.0718611463960015,-0.0252380207523807,-0.112138006666752,0.135738405153255,0.0415571308340856,0.00610033454847327,0.113077115309447,0.0971406706377757,0.00503553043846574,-0.00104950423873169,0.746584396038663,0.0682172014683236,0.814801597506987
174.27249999985,65700,-0.323143418784287,0.0401049716097193,6.47995728221375,5.5668,1416,1571,1463,1521,-0.000858892042170356,-0.0640110341206623,0.0041615650319413,0.00885821692676608,-0.72745838903109,-9.80531899591104,0.609720600866164,-0.656264915435524,-20.8014481109075,0.0721035409909726,-0.0287072400024226,-0.112172129037186,0.150326805505985,0.0403029153823359,0.00627445776418784,0.113075260687398,0.0971406706377757,0.00563885245775799,-0.000699830206024258,0.746077303110357,0.0682190724967462,0.814296375607103
174.32249999985,65720,-0.334695504025402,0.0601649918425895,6.46010308050959,5.5668,1416,1572,1463,1521,-0.0222306669954837,-0.0676288047609673,0.00422393795912897,0.0242872104887628,-0.671108006364355,-9.75017395420433,0.617641879552848,-0.654300368233551,-20.8011024743966,0.0714829065232434,-0.0319378143067718,-0.112197772873359,0.166839564804988,0.0383591272635933,0.00806248965820161,0.11272880486766,0.0971406706377757,0.00584043634521546,-0.00104987755908785,0.744030423826469,0.0682191376227427,0.812249561449212
174.37249999985,65740,-0.346185747979894,0.0802180233833536,6.49964731055528,5.5668,1415,1572,1462,1521,-0.0279830301469194,-0.0841976401910438,0.00377632143609084,0.0631582385384694,-0.712561307643247,-9.85379296792334,0.626419451818294,-0.652438837521518,-20.8007052573008,0.0701057421676258,-0.0357139049300713,-0.112262867621458,0.184685963390521,0.0358114726727631,0.00751753273673843,0.113418851681958,0.0971406706377757,0.00604094110222133,-0.00139980295947417,0.749184121452375,0.0682201444410999,0.817404265893475
174.42249999985,65760,-0.369275779666829,0.0802388389989657,6.45995406302147,5.5668,1416,1573,1462,1521,-0.0246679248639995,-0.0993508914516131,0.00356388000775784,0.00668464394995222,-0.723938752265307,-9.76656017700418,0.636148759953572,-0.650719571535529,-20.8003250676563,0.0687746504736816,-0.0402754292395851,-0.112401060428523,0.204623490613868,0.0327734672325439,0.00833899980681612,0.112726204512493,0.0971406706377757,0.00644386215515834,-0.00140016619196661,0.743699350811668,0.0682209589277995,0.811920309739468
174.472499999849,65780,-0.357742161103357,0.100285398040688,6.47978314323135,5.5668,1415,1573,1462,1521,0.00154104616245665,-0.106525098615136,0.0032466883573996,0.0281889766417321,-0.664939538026937,-9.80560189394753,0.646931958004579,-0.649184820157063,-20.7999050982011,0.068193734369539,-0.0455275155335933,-0.112590244954803,0.227227610834615,0.0287060825427006,0.00855006104707659,0.113072221962155,0.0971406706377757,0.00624260051122576,-0.00174997864724466,0.746508601430092,0.0682227719350152,0.814731373365107
174.522499999849,65800,-0.369275779666822,0.0802388389989466,6.45995406302148,5.5668,1416,1573,1462,1521,0.00885018927494264,-0.0958211528583356,0.00355551911946671,0.0655379062092612,-0.713125681893938,-9.76338464014457,0.658894765061522,-0.647860368998373,-20.7994200941107,0.0684930996046238,-0.050597557124787,-0.112768038955539,0.251805573772875,0.0240468717189828,0.0110079790234045,0.112726204512493,0.0971406706377757,0.00644386215515822,-0.00140016619196627,0.744469396221675,0.0682192400070415,0.812688636228716
174.572499999849,65820,-0.357721516509262,0.0601709534405579,6.4798165238817,5.5668,1416,1572,1462,1521,0.0107637031865326,-0.0795692335215596,0.00384999690361312,0.00739211775358772,-0.726118424790473,-9.84098190315509,0.672159051171289,-0.646764003934071,-20.7988030425284,0.0690836939823867,-0.055005218736027,-0.112885593622879,0.278920156911131,0.019809696744191,0.0134532357926635,0.113072804454504,0.0971406706377757,0.0062422402630588,-0.00104998158897239,0.746183210397393,0.068219373041554,0.814402583438947
174.622499999849,65840,-0.392293488457632,0.080246322953415,6.47965806437114,5.5668,1416,1573,1461,1521,-0.00836022102779093,-0.0737993698162359,0.00324741939564342,0.0275853407386052,-0.665559121736759,-9.80403460086469,0.686835674617015,-0.645889618809655,-20.7981487750662,0.0691839959785914,-0.0587881916743068,-0.112971638490603,0.308538831968574,0.0153089894751258,0.013247706430001,0.113070039336044,0.0971406706377757,0.00684552117355786,-0.00140029678697175,0.746485804448235,0.0682211022364424,0.814706906684678
174.672499999849,65860,-0.392293488457632,0.080246322953415,6.47965806437114,5.5668,1416,1573,1461,1521,-0.0194367138720435,-0.0794696316839865,0.00285594558013979,0.0662386530577738,-0.713185175815702,-9.80334639977187,0.70302370231028,-0.645240726830303,-20.7974734297815,0.0684517360383265,-0.0625867817900903,-0.113080863648461,0.33940181517502,0.0103620902032861,0.0138072125787496,0.113070039336044,0.0971406706377757,0.00684552117355786,-0.00140029678697175,0.746730472573132,0.0682218194107844,0.814952291983916
174.722499999849,65880,-0.392293488457632,0.080246322953415,6.47965806437114,5.5668,1416,1573,1461,1521,-0.0239410828023873,-0.0901816678421507,0.00248575137201318,0.00529933690786633,-0.723672062105432,-9.83591458255072,0.720814124025121,-0.644849450495897,-20.7967566956707,0.0673272911410736,-0.0668120518833471,-0.113235195341886,0.372327191413422,0.00514559684410003,0.0147752493904543,0.113070039336044,0.0971406706377757,0.00684552117355786,-0.00140029678697175,0.746093622132183,0.0682248690458066,0.814318491177989
174.769999999849,65900,-0.392293488457632,0.080246322953415,6.47965806437114,5.5668,1416,1573,1461,1521,-0.0123853153363258,-0.0952126568892046,0.00296516625151768,0.0249556477758788,-0.667981824468562,-9.81725482142205,0.740300559641946,-0.644758444918866,-20.7959919402393,0.0664135504656999,-0.0714979666766475,-0.113410217471953,0.407583947038484,-0.00141639008449455,0.0159643019347808,0.113070039336044,0.0971406706377757,0.00684552117355786,-0.00140029678697175,0.746391543112678,0.0682244635945184,0.814616006707196
174.822499999849,65920,-0.35774216110087,0.100285398049606,6.47978314324307,5.5668,1415,1573,1462,1521,0.00453116475963464,-0.0950560153234645,0.00276422936480312,0.0542049064330633,-0.713006726426825,-9.81332573076242,0.761589991656315,-0.644995754017201,-20.7951642958739,0.0662237171549788,-0.0762861663986764,-0.113584295634788,0.444479752278573,-0.00827996402687808,0.0170992210370815,0.113072221962359,0.0971406706377757,0.00624260051118237,-0.00174997864740028,0.746505325350984,0.0682265249915017,0.814731850342485
174.869999999849,65940,-0.323158647428596,0.0802095547020956,6.47993217156187,5.5668,1415,1572,1463,1521,0.0209205842048576,-0.0758355452022226,0.00298741652593347,0.00174269619185141,-0.718417223653249,-9.860907976421,0.784790009934832,-0.645576302154791,-20.7942441687173,0.0669511732300084,-0.0806484918185448,-0.113734671787378,0.483642315440296,-0.0149512014764036,0.0199927354762592,0.113074822506523,0.0971406706377757,0.00563911819760119,-0.00139965518098621,0.746188265631303,0.0682290838154093,0.814417349446712
174.919999999849,65960,-0.300124726042139,0.0802018865529336,6.46020933063446,5.5668,1415,1572,1464,1521,0.0215702946921692,-0.0562162996919824,0.00304825409796037,0.0177323768099642,-0.679925638543719,-9.76775368501748,0.809993985191852,-0.646497947444535,-20.7932089407425,0.0680010884488141,-0.0839516965193699,-0.113811231338839,0.524754393879948,-0.0217608334202955,0.022206702053796,0.112730658932339,0.0971406706377757,0.0052371762694075,-0.00139952137178334,0.743938154954746,0.0682324670442693,0.812170621999015
174.972499999849,65980,-0.265526712015919,0.0601376802653211,6.46033144548608,5.5668,1415,1571,1465,1521,0.00602313881272434,-0.032779204995969,0.00324161032277389,0.0321491922750252,-0.711859825622066,-9.74344451113488,0.837276135650997,-0.647745842638587,-20.7920466040774,0.0687572485227232,-0.0861151065131621,-0.113802335837199,0.56673598954808,-0.0282437415534054,0.0243951042263105,0.1127327898365,0.0971406706377757,0.00463344092464997,-0.0010494009720645,0.743742312176835,0.0682354771809943,0.81197778935783
175.019999999849,66000,-0.253988319993319,0.0801731792846217,6.48015204444206,5.5668,1414,1571,1465,1521,-0.00863726877577514,-0.0292152946227014,0.00328934999264341,-0.00152605435821485,-0.710306516787218,-9.84931465426038,0.866683417880535,-0.649311951198481,-20.7907664863531,0.0687026713329154,-0.0876097444155119,-0.113737330816966,0.609639399662435,-0.0343405905762941,0.02596021136453,0.113078659288282,0.0971406706377757,0.0044320959838556,-0.00139902042995131,0.746465641003462,0.0682428946371679,0.81470853564063
175.072499999849,66020,-0.219401866245858,0.100193189616203,6.48022269133267,5.5668,1413,1571,1466,1521,-0.0150596468059934,-0.0321546565135589,0.00356996361537425,0.0130692784724855,-0.687294560450535,-9.83759008345792,0.898246969113174,-0.651194955609221,-20.7894071820279,0.068053581248466,-0.0891226064316748,-0.11366780797007,0.65306314878917,-0.0409490080896673,0.0282488821369643,0.113079892076523,0.0971406706377757,0.00382856236596239,-0.00174836961023741,0.746502263514378,0.0682494677859508,0.814751731300329
175.122499999849,66040,-0.184783177931159,0.0801357199688884,6.48031813123264,5.5668,1413,1570,1467,1521,-0.00453492276170536,-0.0374353726142366,0.0037639398301526,0.00968223250836009,-0.711224503760635,-9.81431401129821,0.931995167968108,-0.653408327270639,-20.787970104271,0.0675105279291462,-0.0909529987675171,-0.113607654506212,0.696997062866034,-0.0477413993203535,0.0292016029070397,0.113081557502778,0.0971406706377757,0.00322446625487092,-0.00139836676489177,0.746263588746772,0.0682573841871469,0.814520972933919
175.172499999849,66060,-0.150180055166775,0.100147256085658,6.48036257666747,5.5668,1412,1570,1468,1521,0.00589144023630389,-0.0270842568401579,0.00383507288633666,-0.00820176367800229,-0.698853735516399,-9.86393451374768,0.967964443760209,-0.655969974724411,-20.786495030238,0.0675902591171424,-0.0925740684977164,-0.113526433092338,0.741862415831318,-0.0546686664220047,0.0295991362342903,0.113082333075615,0.0971406706377757,0.0026206417626324,-0.00174756807012938,0.746770029530353,0.0682661761996925,0.815036205730045
175.222499999849,66080,-0.150180055166775,0.100147256085658,6.48036257666747,5.5668,1412,1570,1468,1521,0.0154849690676328,-0.0170687062303846,0.00400720098985214,0.00692778694341623,-0.699146408482801,-9.84131787852255,1.00618686853113,-0.65887670084359,-20.7849991295503,0.0681630723681413,-0.0937355730622755,-0.11340861854837,0.787176206371192,-0.0615695293491374,0.0303127588452947,0.113082333075615,0.0971406706377757,0.0026206417626324,-0.00174756807012938,0.746647157414373,0.0682755678039216,0.814922725218294
175.269999999849,66100,-0.150180055166775,0.100147256085658,6.48036257666747,5.5668,1412,1570,1468,1521,0.00719178650646759,-0.00251437555870555,0.00418901253101462,-0.00118213500295494,-0.712582463195819,-9.78236368265788,1.04668911497751,-0.662116787854559,-20.7834871597519,0.068765320685771,-0.0941965003317485,-0.11323451830719,0.832904144714606,-0.0680389330355601,0.0303011975849004,0.113082333075615,0.0971406706377757,0.0026206417626324,-0.00174756807012938,0.746227360722926,0.0682855847276427,0.814512945450569
175.322499999849,66120,-0.127105870838774,0.100136980062039,6.46059325757727,5.5668,1412,1570,1469,1521,0.000411788785737077,0.00291579380956582,0.00504022369377433,-0.00876836181810692,-0.697612127245154,-9.81919541969212,1.08947640482138,-0.665681064110905,-20.7819237334512,0.068921993319009,-0.0941941163147759,-0.113004243508686,0.87856268760885,-0.074464615272046,0.0321254524808176,0.112737358457491,0.0971406706377757,0.0022179972461088,-0.00174738875351723,0.744766225068096,0.0682959472359305,0.813062172304027
175.372499999849,66140,-0.115570484801106,0.120148205739725,6.48038787652902,5.5668,1411,1570,1469,1521,-0.00769041301528101,0.00417838893593939,0.00590968242695299,0.00590392080182811,-0.704197914293506,-9.86467224729747,1.13453931178353,-0.669565623239662,-20.7802743032882,0.0687014702878279,-0.0940152282702497,-0.112713389411298,0.924018191039649,-0.0809336189807888,0.0333540087280635,0.113082774558199,0.0971406706377757,0.00201670475975148,-0.00209658464159286,0.747044117535639,0.0683064661613536,0.815350583696993
175.422499999849,66160,-0.0924889392976716,0.120136418053306,6.46061032219644,5.4889,1411,1570,1470,1522,-0.00359037141109483,-0.00332918269895153,0.00475096265035311,-0.0189044161039706,-0.689599939910794,-9.74529662309685,1.18188288817289,-0.673753605986083,-20.7786424000143,0.068306012441229,-0.094021638986941,-0.112472641556938,0.96951142115648,-0.0868396743120371,0.0328096575782442,0.112737656235096,0.0957813156377756,0.00161393179071655,-0.00209637894646483,0.740716293149109,0.0668647029591226,0.807580996108231
175.472499999849,66180,-0.0809557187216193,0.14014009976765,6.48039613575658,5.5668,1410,1570,1470,1521,0.00463962582222138,0.000574609411461021,0.00369058018282857,-0.0148474506122365,-0.68643636651958,-9.90234252546337,1.23149253551119,-0.678246819309713,-20.7769754932773,0.0683524552062431,-0.0940900486909071,-0.112291977774383,1.01496831684068,-0.0929555484009429,0.0330429008543997,0.11308291868172,0.0971406706377757,0.00141267709166444,-0.00244544319238015,0.747795653708776,0.0683426998124629,0.816138353521239
175.519999999848,66200,-0.0578665150732673,0.140126452886,6.46060971433785,5.411,1410,1570,1471,1523,0.0180150509009242,0.00697224158873786,0.00108704746518663,0.00224469880570288,-0.674825230046072,-9.83513980558704,1.28337336084256,-0.683037033539045,-20.7753609962102,0.068883568533308,-0.0939742639716279,-0.112150794685923,1.06023252798291,-0.0986097961747282,0.0320972676650647,0.112737645627963,0.0944219606377757,0.00100977048800069,-0.00244520505429535,0.74024387932996,0.0659200435167425,0.806163922846703
175.572499999848,66220,-0.0462979932533781,0.120091983699905,6.48044729346016,5.0994,1410,1569,1471,1527,0.0188874668085524,0.0250707118071458,-0.0195184533285183,-0.0313391290638039,-0.603374252357671,-9.77086572736095,1.33752718677458,-0.688018714555913,-20.7738041210455,0.069912316927369,-0.0931662901854021,-0.112518127281857,1.10577175472086,-0.100292508214527,0.0301590071072931,0.113083811383648,0.0889845406377757,0.000807899782243629,-0.00209560356699801,0.735184036354673,0.0618247455445232,0.797008781899196
175.619999999848,66240,-0.0578661658217865,0.140126237064608,6.46060972387717,5.3331,1410,1570,1471,1524,0.00855804139564607,0.0335204613423764,-0.0334792232658347,-0.0150864558671607,-0.606301514793566,-9.83626504961797,1.39393693645964,-0.693095554087349,-20.7722956719149,0.0707609649793352,-0.0915787791755611,-0.113775165458548,1.1505710824679,-0.10284303312119,0.0298464621295567,0.112737645794424,0.0930626056377758,0.00100976439356236,-0.00244520128821207,0.740667898635565,0.0652291057770103,0.805897004412575
175.669999999848,66260,-0.0809560647818842,0.140139884658887,6.48039613585271,5.411,1410,1570,1470,1523,-0.00836034281702855,0.0337608485451434,-0.0393237711597137,0.00261500970075235,-0.635320839026752,-9.8909629044409,1.4525548861561,-0.698325917124906,-20.7708063461426,0.0709348440452099,-0.0897170254624278,-0.115492531544659,1.19405993528221,-0.106578903967962,0.0294089402543695,0.113082918683398,0.0944219606377757,0.00141268313041606,-0.00244543943873222,0.744030090407412,0.0662416280255934,0.810271718433005
175.722499999848,66280,-0.0694261452758586,0.160137878025539,6.50017477794327,5.4889,1409,1570,1470,1522,-0.0139052353876368,0.0203795856648078,-0.0445999662097788,-0.034283437094636,-0.65353862580054,-9.83345420274796,1.51334505830473,-0.703742146904632,-20.7694614560974,0.0704267728387785,-0.0881637207536803,-0.117498908398469,1.23727563820358,-0.110120661983066,0.0241817300018457,0.113428055987878,0.0957813156377756,0.00121148603503592,-0.00279440442298031,0.749481292599685,0.0677099153334897,0.817191207933174
175.769999999848,66300,-0.0579091896103046,0.180161797383215,6.46054070807171,5.4889,1409,1571,1471,1522,-0.0113342122507098,0.00822078345324995,-0.0454570398125812,-0.0220760297972135,-0.606405395314916,-9.88117375275155,1.57627144679089,-0.709371017427215,-20.768368329655,0.0699548122675551,-0.0872512437421196,-0.119705490026612,1.27971376358243,-0.114968423006459,0.0202188465173005,0.112736441468619,0.0957813156377756,0.001010515158672,-0.00314382181577175,0.744605170228488,0.067440406335337,0.812045576563825
175.819999999848,66320,-0.0579091896103046,0.180161797383215,6.46054070807171,5.5668,1409,1571,1471,1521,0.0142222157627716,0.00746476500950488,-0.0439219017619085,-0.000178192966418966,-0.659139323608319,-9.89569467434901,1.64129056961431,-0.715246717159588,-20.7673783248845,0.0702569559868178,-0.0868056220124436,-0.121947915886435,1.3210667931542,-0.1203565046525,0.0192291853174254,0.112736441468619,0.0971406706377757,0.001010515158672,-0.00314382181577175,0.746212533130584,0.0686205693119449,0.814833102442529
175.872499999848,66340,-0.0579091896103046,0.180161797383215,6.46054070807171,5.4889,1409,1571,1471,1522,0.0213777413481947,0.0196487626964679,-0.0428180688761514,-0.0409541951248176,-0.647630474597045,-9.74516740246878,1.70838617483237,-0.721385230440129,-20.7665035290968,0.0713689640370694,-0.0859915460804126,-0.124053691771532,1.36252468382763,-0.124974026826174,0.0161647278279891,0.112736441468619,0.0957813156377756,0.001010515158672,-0.00314382181577175,0.743629803376593,0.0674878863794744,0.811117689756067
175.919999999848,66360,-0.0579091896103046,0.180161797383215,6.46054070807171,5.4889,1409,1571,1471,1522,0.0205823257004321,0.0355475134627441,-0.0424378538918633,-0.0204399948316724,-0.610209438539711,-9.90129710296326,1.77753963603092,-0.72774466281436,-20.7657673212859,0.0726677614588112,-0.0844587132452959,-0.126087304008999,1.40364593634545,-0.12913520841933,0.0125765547229675,0.112736441468619,0.0957813156377756,0.001010515158672,-0.00314382181577175,0.745422984309469,0.0675150796310905,0.812938063940559
175.969999999848,66380,-0.0694851281153646,0.200206197016203,6.44068818091118,5.5668,1409,1572,1471,1521,0.00305350131709241,0.0411921260750753,-0.040239055860975,0.00393271061584222,-0.659164406353059,-9.83556357825275,1.84871794107773,-0.734292767113352,-20.765195479378,0.0734754369969266,-0.082329416011423,-0.128038597684341,1.44332103931676,-0.13305483539888,0.0109070618414764,0.112390014869668,0.0971406706377757,0.00121251528558531,-0.0034935965893674,0.744452196921244,0.0687013766201208,0.813153573541365
176.019999999848,66400,-0.0925739427483052,0.20022561983217,6.46047287706166,5.5668,1409,1572,1470,1521,-0.0101011034512421,0.0325699237604098,-0.0355010387436927,-0.0380106524366123,-0.667725963774494,-9.74061863535958,1.9218724081677,-0.741036885163379,-20.7647897625847,0.0733711216352166,-0.0803195542137519,-0.129795388305991,1.48249445396004,-0.136736529372459,0.00569739292402764,0.112735257817494,0.0971406706377757,0.00161541510093012,-0.00349393551750601,0.746126990809569,0.0687094968479675,0.814836487657536
176.072499999848,66420,-0.0926320361448803,0.240269518800667,6.4603783788387,5.4889,1408,1573,1470,1522,-0.0138398848514736,0.0123189489729329,-0.032016202594956,-0.0277596469569287,-0.611017053340254,-9.97649137400396,1.9969575030053,-0.747976209687691,-20.764621762468,0.0728295217037795,-0.0790143884471743,-0.131372842716659,1.52098351767248,-0.14047252488683,0.000266149915296497,0.112733608823503,0.0957813156377756,0.00161642883070035,-0.00419270155450629,0.746338535283803,0.0675738475636829,0.813912382847485
176.119999999848,66440,-0.0695439052299146,0.24024626237845,6.44059367854111,5.4889,1408,1573,1471,1522,0.0152872034687926,0.00693110838063638,-0.0301332188124177,0.00138854687671341,-0.656753048809217,-9.92618767246219,2.07393876395092,-0.75508687432195,-20.7646719691536,0.0729995386194879,-0.0785264728107132,-0.132902852340819,1.55828814273817,-0.14411570439539,-0.00208081813790496,0.11238836580331,0.0957813156377756,0.0012135409462342,-0.0041922957299386,0.743123043125346,0.0676039097528842,0.81072695287823
176.169999999848,66460,-0.0811277827849491,0.260300763686502,6.42072647006699,5.411,1408,1574,1471,1523,0.0280500427260711,0.0163884021635646,-0.0294583663880121,-0.046475237985757,-0.651268022105336,-9.67950461695629,2.15279696572309,-0.762363029998879,-20.7649031895862,0.0742316960215201,-0.0778762174562998,-0.13433192409535,1.59576751976319,-0.146711022586297,-0.00636746745199246,0.112041683015437,0.0944219606377757,0.00141567960956956,-0.00454224677776411,0.737885966473136,0.0664948681102991,0.804380834583435
176.222499999848,66480,-0.0811277827849491,0.260300763686502,6.42072647006699,5.4889,1408,1574,1471,1522,0.0305070953366307,0.0296469281009657,-0.0264504784442464,-0.028076733851352,-0.621191125828189,-9.90931069071666,2.23351276975265,-0.769771379342306,-20.7652620225576,0.0758507899213959,-0.076639355736016,-0.135643968977879,1.63294964168776,-0.149256694416538,-0.00901847663967856,0.112041683015437,0.0957813156377756,0.00141567960956956,-0.00454224677776411,0.742542855570912,0.0676567992549635,0.810199654825875
176.272499999848,66500,-0.127316428008639,0.260395294244831,6.40087128885997,5.411,1409,1575,1470,1523,0.00766320436875715,0.0392710176751182,-0.0254980512863248,0.00965749637479507,-0.6421517895644,-9.82457367404133,2.31605989657569,-0.777276772459915,-20.7657121431229,0.0770256887171065,-0.0747421803029303,-0.136783787290763,1.66897369751677,-0.150834869588067,-0.00904087933576034,0.111695210103374,0.0944219606377757,0.00222167146872294,-0.00454389633600696,0.737158521384411,0.0665513241047892,0.8037098454892
176.322499999848,66520,-0.0927151723286912,0.280360663179397,6.40085284720018,5.411,1408,1575,1471,1523,0.00260746004985438,0.0257325993232711,-0.025794316818207,-0.0482169712041151,-0.654457789698474,-9.65443165173728,2.40040947018069,-0.784822417565368,-20.7662877808831,0.0772503837100141,-0.0729934960515904,-0.137941050759766,1.70458641795643,-0.15101164796468,-0.0132419054088487,0.111694888296411,0.0944219606377757,0.00161787955710784,-0.00489229202391513,0.736424385759411,0.0665877687862979,0.803012154545709
176.372499999848,66540,-0.104304635005219,0.300424992046242,6.38097294752836,5.411,1408,1576,1471,1523,0.00636944873066574,0.0180216725128053,-0.0225807758959085,-0.0330504308134038,-0.596748407206638,-9.88441019115638,2.48650919457684,-0.792404254645987,-20.7669998833679,0.0775230297427884,-0.0717998066994191,-0.1390739063668,1.73946659147062,-0.152055334158608,-0.0162463933364752,0.111347984047138,0.0944219606377757,0.00182011568081327,-0.00524241456264158,0.735379875733074,0.066318269916722,0.801698145649796
176.422499999848,66560,-0.104304647747996,0.300425429426631,6.38097292349236,5.4889,1408,1576,1471,1522,0.0190794701631121,0.0147768190294698,-0.019327651749328,0.00625542584560057,-0.670082218889455,-9.87256224526571,2.57432560606787,-0.800021185429872,-20.7678081347743,0.0782164541794206,-0.0709536962229271,-0.140085962919851,1.77323061307048,-0.152904011471156,-0.0163767619845665,0.11134798362771,0.0957813156377756,0.00182011590317473,-0.00524242219492937,0.737674504971604,0.0677747154188479,0.805449220390452
176.472499999848,66580,-0.115897175793916,0.320494364708187,6.36108678880011,5.411,1408,1577,1471,1523,0.0242020521278688,0.0149576410675502,-0.0168375907670473,-0.0482363492221188,-0.674947763226121,-9.61167372547436,2.66384052835976,-0.807658803607411,-20.7686937563612,0.0793369990240394,-0.0701275679321669,-0.140922693340055,1.80701052900187,-0.152508418103562,-0.0177722575255237,0.11100097057733,0.0944219606377757,0.00202240551757602,-0.00559262511559253,0.732327540477939,0.0666687310016898,0.798996271479629
176.519999999848,66600,-0.13898165557508,0.320525414873074,6.38086464170898,5.411,1408,1577,1470,1523,0.0235221838329181,0.0199989590251818,-0.0147010711521199,-0.0335692493240265,-0.622879114792103,-9.96553248828867,2.75503376589235,-0.815274997236043,-20.7696013981372,0.0806361689767003,-0.0691721699389491,-0.141633947259985,1.8408958063075,-0.151698951595293,-0.0203661793791619,0.11134609411059,0.0944219606377757,0.00242522968975734,-0.00559316694096979,0.737922732295299,0.0666992286196306,0.80462196091493
176.572499999848,66620,-0.10438854497107,0.34047917333973,6.38083720094963,5.411,1407,1577,1471,1523,0.0297722217042778,0.0221488631413465,-0.0123545157764212,0.00958984591756484,-0.668669653537425,-9.90317615321652,2.84789605850521,-0.822825027417883,-20.7706555902019,0.0819927325906466,-0.0680814018829327,-0.142223741130721,1.8736571569113,-0.150330455959475,-0.0221443238871979,0.111345615269339,0.0944219606377757,0.00182157990971737,-0.00594136002621295,0.736488094659739,0.0667281917298291,0.803216286389568
176.622499999847,66640,-0.10438854497107,0.34047917333973,6.38083720094963,5.411,1407,1577,1471,1523,0.0303697852584304,0.0277320453929084,-0.0100518008841224,-0.0522663166141918,-0.690947844042711,-9.6583534577699,2.94240600120999,-0.830271158730801,-20.7719130004108,0.0835411559005313,-0.0667994614293577,-0.142682537581554,1.90635174677956,-0.147471897345,-0.0273780448694155,0.111345615269339,0.0944219606377757,0.00182157990971737,-0.00594136002621295,0.735455604752254,0.0667603988667805,0.802216003619034
176.669999999847,66660,-0.104402872055826,0.340535850107747,6.3214111935964,5.411,1408,1578,1472,1523,0.0254056953543966,0.0336484805587227,-0.00509982940198215,-0.033831998275063,-0.638261962195843,-9.8476132979541,3.03852128685392,-0.837590359793045,-20.7732709497392,0.0849874327500799,-0.0651914842667855,-0.142926608950264,1.93826009730808,-0.144869576564393,-0.0270612221522048,0.110308631441025,0.0944219606377757,0.00182182991734636,-0.00594234903581482,0.732026206608139,0.0667850445725289,0.798811251180668
176.722499999847,66680,-0.0928953189794996,0.360518774080679,6.34115820276504,5.3331,1407,1578,1472,1524,0.0213659082476785,0.0321803905894289,-0.00129483463886461,0.0113812105125767,-0.673635354798051,-9.85138453825535,3.13619921689377,-0.844745438243986,-20.7746099799329,0.0861137371655849,-0.0635191539730606,-0.142929083424586,1.96888972714665,-0.141286831361948,-0.0269208633751933,0.110653216751018,0.0930626056377758,0.00162102311616446,-0.00629105105914251,0.730044844584539,0.0655684581356857,0.795613302720224
176.769999999847,66700,-0.0928953189794996,0.360518774080679,6.34115820276504,5.3331,1407,1578,1472,1524,0.0238204779832323,0.0289572211517566,-0.000905531871342128,-0.0569872324615024,-0.696195857923858,-9.60621648980233,3.23541644343108,-0.851668866359913,-20.7760713014091,0.0872096138234229,-0.0620154234578481,-0.142857460518655,1.9993674135869,-0.135654535706687,-0.0307126907014637,0.110653216751018,0.0930626056377758,0.00162102311616446,-0.00629105105914251,0.729810760638594,0.0657376782477852,0.795548438886379
176.822499999847,66720,-0.104496427172823,0.380595204543896,6.32125980217906,5.3331,1407,1579,1472,1524,0.0232535633746251,0.0264285362339864,0.00130818547849817,-0.0381298326595819,-0.630008576809343,-9.92673911310822,3.33613305289217,-0.858322742170311,-20.777632977692,0.0884003599252484,-0.0606016097512019,-0.142735275540709,2.0293748935515,-0.130147419441525,-0.0326531703686495,0.110305989660793,0.0930626056377758,0.00182346245413793,-0.00664138477072563,0.730661163605496,0.06565887372587,0.796320037331366
176.872499999847,66740,-0.139188968582096,0.400715358222022,6.32113687132441,5.3331,1407,1580,1471,1524,0.0225299455881294,0.023576868926738,0.00589211393373042,0.0156951093376848,-0.689065498691309,-9.86543658071042,3.43831670888912,-0.864691313321139,-20.7792584729394,0.089624654008186,-0.0593715420150082,-0.142423737662347,2.05809908656508,-0.124539540847914,-0.0320508988773129,0.110303844517379,0.0930626056377758,0.00242884730172976,-0.00699248145240895,0.729291130458337,0.0657927251466872,0.795083855605024
176.922499999847,66760,-0.150793818569425,0.420803109278249,6.30122477217121,5.3331,1407,1581,1471,1524,0.0247444279132204,0.0177940567701369,0.00798547326679763,-0.0496822148543524,-0.720125355259162,-9.55608207958545,3.5419539154576,-0.870727917848333,-20.7809828856688,0.0907417528887192,-0.0583969388756489,-0.14199065684164,2.08698476569745,-0.11698339377343,-0.0357836604762588,0.109956378387155,0.0930626056377758,0.00263135193400866,-0.00734301270834008,0.725686286675736,0.0658343009300503,0.791520587605787
176.972499999847,66780,-0.162293814966469,0.400819157969259,6.28148111228807,5.3331,1408,1581,1471,1524,0.0263413963682315,0.0138819546304047,0.0112896774576165,-0.0385209318707489,-0.661392704156238,-9.92076232818314,3.6470191696215,-0.876400599083964,-20.7827589173173,0.0919401575871654,-0.0576972926797649,-0.141444783629848,2.11571718133368,-0.109520700816468,-0.0363141289019303,0.109611851522195,0.0930626056377758,0.00283202687113709,-0.00699429275799822,0.72746422586417,0.0658672036801872,0.793331429544357
177.022499999847,66800,-0.173899360463769,0.420911166382838,6.26156483152876,5.3331,1408,1582,1471,1524,0.0265880666244708,0.011999762051692,0.0160676337372764,0.0173528423519286,-0.713135537707331,-9.79334494001725,3.75349366363426,-0.881687289810913,-20.7844654851658,0.0932034098901516,-0.0571210315843641,-0.140705903337202,2.14338529977268,-0.102039571476165,-0.0317385554070914,0.109264312422945,0.0930626056377758,0.00303454364006496,-0.00734489830481517,0.723364111515286,0.0658944818772167,0.789258593392503
177.072499999847,66820,-0.20858542084,0.441050866769433,6.26141031748596,5.2552,1408,1583,1470,1525,0.0270347714345537,0.00745501821971477,0.0175734434752461,-0.0413463067296603,-0.732728328787611,-9.54394277233611,3.86137156125261,-0.886547855476953,-20.786057478924,0.0944888937703334,-0.0567154276518807,-0.139815128415875,2.17143881839714,-0.0923534926473501,-0.0311660487857941,0.109261616152898,0.0917032506377757,0.00363981539363019,-0.00769633607656126,0.719997670215889,0.0648384098246492,0.784836080040538
177.119999999847,66840,-0.185507746686484,0.441008301808172,6.24164266735602,5.2552,1408,1583,1471,1525,0.0310788599633186,0.00452504272232308,0.0194565992544782,-0.0411442902136534,-0.666786019585531,-9.94657644373762,3.97064944510532,-0.890929149690162,-20.7875473729534,0.0958200027274993,-0.0565391685647273,-0.138870376212703,2.19976794260395,-0.0824599458506455,-0.0294979276346365,0.10891667065813,0.0917032506377757,0.00323710997965133,-0.00769559331798726,0.722270734931823,0.0648769338031041,0.787147668734927
177.172499999847,66860,-0.185507746686484,0.441008301808172,6.24164266735602,5.2552,1408,1583,1471,1525,0.0390394213867001,0.00864167714577744,0.0220491795968062,0.0188626276745715,-0.718962298142673,-9.80838693488345,4.08132253078703,-0.894795156342209,-20.7889382128655,0.0975475988494738,-0.0563450760702284,-0.137809676595578,2.22731089093221,-0.0722670055955876,-0.025713771818711,0.10891667065813,0.0917032506377757,0.00323710997965133,-0.00769559331798726,0.720109284132508,0.0649116412275607,0.785020925360069
177.222499999847,66880,-0.197117884484707,0.461109295426559,6.22171481287525,5.2552,1408,1584,1471,1525,0.0374929467965805,0.0164013831427539,0.0248711134568855,-0.0429812645851129,-0.757179255175594,-9.46023260291043,4.19339380125593,-0.898107639136084,-20.7902600003951,0.0994256400379613,-0.0558335970503214,-0.136583070424445,2.25517617841687,-0.0602719125088873,-0.0259312811075076,0.108568929597441,0.0917032506377757,0.00343970688423032,-0.0080463556566281,0.716328757943638,0.0649490791968859,0.781277837140524
177.272499999847,66900,-0.220194831550096,0.461154079391535,6.24148072974823,5.2552,1408,1584,1470,1525,0.0301030568820229,0.0145303621702238,0.0307520532000281,-0.037953950710422,-0.696427660827583,-9.95261055199713,4.30684606058441,-0.900842629229026,-20.7914535390045,0.100994977384965,-0.055188998058474,-0.135091430217579,2.28307892164006,-0.0483667312332369,-0.0236912779529967,0.108568929597441,0.0917032506377757,0.00343970688423032,-0.0080463556566281,0.721134025486211,0.0649795662336817,0.786113591719893
177.319999999847,66920,-0.231806297624847,0.481261327659962,6.22154549557812,5.2552,1408,1585,1470,1525,0.0189424926383965,0.0102151877365759,0.0345673206562284,0.027382979283067,-0.743446057241382,-9.78509708197389,4.42167857442731,-0.902937674357128,-20.7926077560456,0.102156030924195,-0.0546943123040923,-0.133403422422561,2.31032438032193,-0.0356236087708547,-0.021190630486499,0.108565975010606,0.0917032506377757,0.00404501969352575,-0.008398008619101,0.718827363116501,0.0650143240800475,0.783841687196548
177.369999999847,66940,-0.243420466525589,0.50137305800079,6.20160461780206,5.2552,1408,1586,1470,1525,0.0234571637256478,-0.0030249287505743,0.0389538707600081,-0.0368585991117232,-0.794950856167938,-9.47971577557691,4.53788908486369,-0.90436148728813,-20.793707918714,0.103044493391107,-0.0547496580815679,-0.131562343561257,2.33777986175972,-0.021468476690412,-0.0218173674749103,0.108565975010606,0.0917032506377757,0.00404501969352575,-0.008398008619101,0.714878325361615,0.0650516345729254,0.779929959934541
177.419999999847,66960,-0.254912066240711,0.481381363012925,6.18186043691038,5.2552,1409,1586,1470,1525,0.0248948331179323,-0.00835093355156721,0.04499731298817,-0.0370729112169855,-0.738315613698932,-9.98757328341342,4.65546804851147,-0.905106762920896,-20.7946297027169,0.104101719046097,-0.0552509341080372,-0.129501113062464,2.36558574523194,-0.00780616059733289,-0.0170548803307582,0.107873470736854,0.0917032506377757,0.0044482153558726,-0.00840010323601019,0.717498271213876,0.0650836054492267,0.782581876663102
177.472499999847,66980,-0.231839001960448,0.48133456457968,6.1620995805608,5.1773,1409,1586,1471,1526,0.0399531949992781,-0.00593481433045807,0.0490676447735916,0.0272077457624511,-0.77753385083036,-9.75500675710939,4.77442530904876,-0.905142349223804,-20.7953127348793,0.105593017253809,-0.0558968654312574,-0.127186946959827,2.39289876743595,0.00638265312384571,-0.00930112872104661,0.107528643793554,0.0903438956377757,0.00404559038418202,-0.00839928660335006,0.711185261803908,0.0640404404113653,0.775225702215273
177.519999999847,67000,-0.231839001960448,0.48133456457968,6.1620995805608,5.0994,1409,1586,1471,1527,0.0426439631565438,0.00428251174780931,0.0510681352107245,-0.035323381015236,-0.806306360287182,-9.44249705185069,4.89477842553935,-0.904412965614137,-20.7957333299068,0.107558303251202,-0.0562124238875411,-0.124677834316515,2.42096562360038,0.0229314249662827,-0.00661188532552555,0.107528643793554,0.0889845406377757,0.00404559038418202,-0.00839928660335006,0.707651090768597,0.0630189674297426,0.770670058198339
